stop_id,stop_name,stop_desc,stop_lat,stop_lon,zone_id,stop_url,location_type,parent_station,wheelchair_boarding
BENA1,"Beaulieu",,47.20411813,-1.53718842,,,0,BENA,1
BENA2,"Beaulieu",,47.20394287,-1.53704358,,,0,BENA,1
BENA3,"Beaulieu",,47.20347912,-1.53476335,,,0,BENA,1
BENA4,"Beaulieu",,47.20368539,-1.53398533,,,0,BENA,1
BENA5,"Beaulieu",,47.20384859,-1.53716891,,,0,BENA,2
ABCH,"Abbé Chérel",,47.21010098,-1.65221959,,,1,,
ABDU,"Abel Durand",,47.22024715,-1.60339908,,,1,,
ABOL,"Adrienne Bolland",,47.26791335,-1.47684627,,,1,,
ACHA,"Angle Chaillou",,47.26986259,-1.57199068,,,1,,
ADBO,"Audubon",,47.21401606,-1.72323592,,,1,,
ADEL,"Aimé Delrue",,47.20899731,-1.55009787,,,1,,
ADPI,"Avenue des Pins",,47.25367844,-1.59766118,,,1,,
AECL,"Aéroclub",,47.15944975,-1.59813406,,,1,,
AEPO,"D2A - Aéroport",,47.15686225,-1.59741579,,,1,,
AESP,"Aérospatiale",,47.16135928,-1.58704949,,,1,,
AFRA,"Anatole France",,47.22392580,-1.57207157,,,1,,
AGBE,"L'Angebert",,47.14054089,-1.45576884,,,1,,
AGDR,"Angebardière",,47.16943260,-1.50522732,,,1,,
AGVI,"Angevinière",,47.24599501,-1.61164521,,,1,,
AIBU,"Airbus",,47.15798559,-1.59089584,,,1,,
AIGU,"Aiguillon",,47.25456226,-1.49652938,,,1,,
ALCH,"Champ de l'Alouette",,47.28282777,-1.58008630,,,1,,
ALDE,"Allende",,47.17525341,-1.62320432,,,1,,
ALNE,"Aulne",,47.27693730,-1.63907702,,,1,,
AMCA,"Armoricaine",,47.25827307,-1.64747915,,,1,,
AMER,"Américains",,47.23612591,-1.56820260,,,1,,
AMPE,"Ampère",,47.26076619,-1.55333274,,,1,,
ANGE,"Les Anges",,47.27529402,-1.63710197,,,1,,
ANTO,"Antons",,47.25759558,-1.62268887,,,1,,
APAV,"Apave",,47.22539944,-1.64741053,,,1,,
APER,"Ampère",,47.30218726,-1.50789091,,,1,,
APRE,"Ambroise Paré",,47.22889385,-1.60866390,,,1,,
AQUI,"Aquitaine",,47.20980261,-1.61486966,,,1,,
ARAG,"Arago",,47.30355064,-1.50481141,,,1,,
ARBO,"Arbois",,47.25863331,-1.58175331,,,1,,
ARCA,"Arcades",,47.21203639,-1.65355356,,,1,,
ARGO,"Argonautes",,47.30242198,-1.48182549,,,1,,
ARMO,"Armorique",,47.27147205,-1.44534382,,,1,,
AROR,"Armor",,47.23107086,-1.63183278,,,1,,
ATAR,"Antarès",,47.28171763,-1.45970027,,,1,,
AUCP,"La Chapelle Aulnay",,47.30814501,-1.54248265,,,1,,
AUFR,"L'Aufrère",,47.16804829,-1.52507017,,,1,,
AUGE,"Augé",,47.19496578,-1.51736648,,,1,,
AURR,"Aurore",,47.26539845,-1.58145537,,,1,,
AVEN,"Aveneaux",,47.23393311,-1.62979710,,,1,,
BABI,"Barbinière",,47.15985795,-1.48169668,,,1,,
BAGA,"Bagatelle",,47.24354938,-1.61992939,,,1,,
BAIE,"Babinière",,47.25925666,-1.54627740,,,1,,
BAIR,"Bel Air",,47.22580682,-1.55960903,,,1,,
BALI,"Balinière",,47.18598939,-1.55397615,,,1,,
BANS,"Bois des Anses",,47.24659645,-1.49503252,,,1,,
BARR,"La Barre",,47.30881395,-1.38257905,,,1,,
BAST,"Bastille",,47.17903610,-1.59693154,,,1,,
BATI,"Batignolles",,47.25560851,-1.52993977,,,1,,
BAUG,"Baugerie",,47.20378578,-1.52024833,,,1,,
BAVO,"Basse Orévière",,47.22040673,-1.65893741,,,1,,
BBON,"Boisbonne",,47.28686058,-1.50837641,,,1,,
BCES,"Bois Cesbron",,47.26104953,-1.62440007,,,1,,
BCGA,"Bd Charles Gautier",,47.22282066,-1.60715830,,,1,,
BCHE,"Basse Chênaie",,47.24147198,-1.50828681,,,1,,
BCNY,"Bas-Chantenay",,47.19818765,-1.58919452,,,1,,
BCOI,"Branchoire",,47.21800419,-1.60340575,,,1,,
BCTT,"Blanchet",,47.17130941,-1.54326782,,,1,,
BDAN,"Bd des Anglais",,47.22671207,-1.58285255,,,1,,
BDEL,"Baudelaire",,47.23366160,-1.59301502,,,1,,
BDGL,"Bodiguel",,47.19847811,-1.65492143,,,1,,
BDIN,"Bodinière",,47.21000731,-1.64190242,,,1,,
BDLA,"Bout des Landes",,47.26744242,-1.58226680,,,1,,
BDNN,"Bourdonnais",,47.20637294,-1.57945954,,,1,,
BDOU,"Bd de Doulon",,47.22469671,-1.51977291,,,1,,
BDPA,"Bout des Pavés",,47.25269421,-1.57629132,,,1,,
BDRI,"Bourderies",,47.20664094,-1.59565658,,,1,,
BDSP,"Bd des Sports",,47.16559974,-1.46876821,,,1,,
BEDR,"Bel Endroit",,47.15470661,-1.63396536,,,1,,
BEGE,"Beauger",,47.23423318,-1.55305581,,,1,,
BEHI,"Béhinière",,47.19701789,-1.79093353,,,1,,
BEIL,"Beillevaire",,47.24956252,-1.60741126,,,1,,
DPBL,"Bêle",,47.26472488,-1.51048865,,,1,,
BEMZ,"Belges-Montbazon",,47.23461282,-1.54098400,,,1,,
BENA,"Beaulieu",,47.20411813,-1.53718842,,,1,,
BEOC,"Belloc",,47.20302214,-1.61455400,,,1,,
BESS,"Bessonneau",,47.21462890,-1.71349968,,,1,,
BETO,"Belle Etoile",,47.28018099,-1.45165075,,,1,,
BEVA,"Beauvaiserie",,47.13625604,-1.65437802,,,1,,
BGAR,"Bonne Garde",,47.19702208,-1.53125706,,,1,,
BGCY,"Beaugency",,47.20379533,-1.49024992,,,1,,
BGLA,"Basse-Goulaine",,47.21036202,-1.46600404,,,1,,
BGNN,"Bourgonnière",,47.20665817,-1.65539946,,,1,,
BGOG,"Bourgogne",,47.24630711,-1.58931505,,,1,,
BGRI,"Bougrière",,47.25501604,-1.47195795,,,1,,
BGSH,"Bergerie",,47.23794964,-1.62824352,,,1,,
BGTT,"Bergeronnettes",,47.23959521,-1.60125384,,,1,,
BGUT,"Louis Breguet",,47.27205303,-1.46602672,,,1,,
BGVI,"Bougainville",,47.19894579,-1.58359414,,,1,,
BHAR,"Bois Hardy",,47.19827606,-1.60059220,,,1,,
BHLR,"Basse Hillière",,47.28666678,-1.42683097,,,1,,
BIAN,"Aristide Briand",,47.29640065,-1.49503045,,,1,,
BIEE,"Belle Île",,47.22439959,-1.73275085,,,1,,
BIGN,"Bignons",,47.19981789,-1.49340125,,,1,,
BILE,"Basse Ile",,47.19567263,-1.56326908,,,1,,
BIND,"Basse Indre",,47.19786018,-1.67271604,,,1,,
BIOT,"Bigeottière",,47.25599275,-1.61952741,,,1,,
BJLI,"Bois Jaulin",,47.17757559,-1.63685031,,,1,,
BJOI,"Beaujoire",,47.25884014,-1.52488181,,,1,,
BLAV,"Balavoine",,47.30648713,-1.55427932,,,1,,
BLCH,"Blancho",,47.21355413,-1.73377668,,,1,,
BLDR,"Boulodrome",,47.25763488,-1.51513767,,,1,,
BLEM,"Belem",,47.26563709,-1.45300144,,,1,,
BLGO,"Berligout",,47.21567654,-1.67841379,,,1,,
BLL9,"Bellestre",,47.14846357,-1.69436915,,,1,,
BLLE,"Bellestre",,47.14793376,-1.69406522,,,1,,
BLNO,"Bois de La Noé",,47.14178867,-1.67142407,,,1,,
BLOR,"Blordière",,47.17991242,-1.53385179,,,1,,
BLSL,"Bellevue",,47.23541838,-1.47360365,,,1,,
BLUA,"Bélouga",,47.16580200,-1.58354505,,,1,,
BLVU,"Mendès-France-Bellevue",,47.20852569,-1.61165603,,,1,,
BLZZ,"Berlioz",,47.23970226,-1.57163772,,,1,,
BNCH,"Blanchetière",,47.28967380,-1.55609936,,,1,,
BNDA,"Brindais",,47.13897860,-1.71820971,,,1,,
BNET,"Bignonnet",,47.17553725,-1.46511578,,,1,,
BNIE,"Bournière",,47.25439588,-1.45524697,,,1,,
BNLU,"Bénélux",,47.25411511,-1.49914288,,,1,,
BNNO,"Bernanos",,47.20620280,-1.61373151,,,1,,
BNON,"Bignon",,47.24908296,-1.59771985,,,1,,
BNTA,"BN",,47.18431325,-1.49651937,,,1,,
BNVI,"Bonneville",,47.24389028,-1.53640618,,,1,,
BOCE,"Centre de Bouguenais",,47.17931447,-1.62297628,,,1,,
BODO,"Bourdonnières",,47.18642894,-1.52216850,,,1,,
BOFA,"Bouffay",,47.21460870,-1.55195955,,,1,,
BOGE,"Bourgeonnière",,47.25293409,-1.56122882,,,1,,
BOLL,"Bois Tillac",,47.20024463,-1.77122484,,,1,,
BOND,"Bonde",,47.22253740,-1.55187487,,,1,,
BORL,"Bourrelière",,47.15831350,-1.49835581,,,1,,
BOSI,"Boissière",,47.25494309,-1.56574073,,,1,,
BOTI,"Boutière",,47.15724784,-1.46804280,,,1,,
BOUE,"Bio Ouest Laënnec",,47.23270638,-1.64187191,,,1,,
BOVR,"Bouvre",,47.17821183,-1.61311926,,,1,,
BPTY,"Boulay Paty",,47.22881389,-1.57665988,,,1,,
BRAG,"Bois Raguenet",,47.26682671,-1.60034915,,,1,,
BRBI,"Bois Robillard",,47.23568017,-1.51990372,,,1,,
BRCH,"Bréchetière",,47.28477709,-1.50332935,,,1,,
BRDI,"Briandière",,47.18970915,-1.69205782,,,1,,
BRET,"Bretonnière",,47.16651436,-1.46289052,,,1,,
BRGA,"Beauregard",,47.21002642,-1.65697260,,,1,,
BRIN,"Brains",,47.17075177,-1.71889870,,,1,,
BRLA,"Brouillard",,47.27313261,-1.51493135,,,1,,
BRLN,"Berlin",,47.21648924,-1.53623353,,,1,,
BRNI,"Baronnière",,47.25959399,-1.60378548,,,1,,
BROS,"Brossais",,47.16258113,-1.58555429,,,1,,
BRTA,"Bretagne",,47.21709924,-1.55822138,,,1,,
BRUN,"Bruneau",,47.22831085,-1.56173506,,,1,,
BRVI,"Boris Vian",,47.15316280,-1.68363101,,,1,,
BSAN,"Bobby Sands",,47.22988866,-1.65303418,,,1,,
BSEJ,"Beauséjour",,47.23795164,-1.58605673,,,1,,
BSIS,"Bossis",,47.21258119,-1.71281589,,,1,,
BSNI,"Bussonnière",,47.26902545,-1.44305373,,,1,,
BSOL,"Beau Soleil",,47.17766190,-1.64478281,,,1,,
BSTI,"Bastière",,47.14834812,-1.45935784,,,1,,
BSYS,"Bois St-Lys",,47.30043222,-1.48208043,,,1,,
BTAI,"Brétinais",,47.22170065,-1.66577687,,,1,,
BTCY,"Lycée Bois Tillac",,47.20343111,-1.77027988,,,1,,
BTEC,"Bretéché",,47.22592749,-1.54749386,,,1,,
BTIE,"Bottière",,47.24024313,-1.51811685,,,1,,
BTLE,"Bouteillerie",,47.22167159,-1.54282219,,,1,,
BTRA,"Bertrand",,47.25712789,-1.57568980,,,1,,
BUGA,"Bugallière",,47.25996214,-1.63768218,,,1,,
BULA,"Butte des Landes",,47.16080750,-1.49378067,,,1,,
BUON,"Bougon",,47.17424115,-1.61071290,,,1,,
BUSS,"Buisson",,47.26062797,-1.48743916,,,1,,
BVDI,"Bouvardière",,47.23852184,-1.59839758,,,1,,
BVER,"Bouvernière",,47.23807988,-1.61132532,,,1,,
BVOI,"Beauvoir",,47.17851239,-1.63057890,,,1,,
BYCE,"Centre de Bouaye",,47.14396012,-1.69178590,,,1,,
BYGA,"Gare de Bouaye",,47.13840350,-1.68067539,,,1,,
BYTO,"Bouaye Coteaux",,47.16477019,-1.67882328,,,1,,
BZAR,"Buzardières",,47.20677231,-1.65990192,,,1,,
CABR,"Cabrol",,47.20328093,-1.58853732,,,1,,
CACE,"Centre de Carquefou",,47.29710622,-1.49005046,,,1,,
CADO,"Cadoire",,47.25673385,-1.48808660,,,1,,
CAGE,"Chalonges",,47.27613635,-1.42939758,,,1,,
CAHL,"Charlière",,47.32102226,-1.55057037,,,1,,
CAIO,"Caillou Blanc",,47.29867619,-1.58548503,,,1,,
CALI,"Californie",,47.19126412,-1.58435283,,,1,,
CANC,"Canclaux",,47.21382637,-1.57481021,,,1,,
CAPE,"Capellia",,47.27971448,-1.55497680,,,1,,
CARQ,"Carquefou",,47.30365167,-1.48548819,,,1,,
CAST,"Castorama",,47.25889176,-1.50715847,,,1,,
CATI,"Cartier",,47.26816466,-1.45556222,,,1,,
CATV,"CAT Vertonne",,47.18416147,-1.48210907,,,1,,
CAUX,"Château D'Aux",,47.18536593,-1.67455481,,,1,,
CBAC,"Bac de Couëron",,47.20598337,-1.75170597,,,1,,
CBEA,"Charbonneau",,47.30068698,-1.49070416,,,1,,
CBGE,"Chapeau Berger",,47.17100393,-1.46875604,,,1,,
CBIN,"Corbinerie",,47.16161915,-1.54216964,,,1,,
CBLE,"Chemin Bleu",,47.17822772,-1.52501183,,,1,,
CBOU,"Couëron Bougon",,47.22508102,-1.73386051,,,1,,
CBRD,"Claude Bernard",,47.22310732,-1.61193903,,,1,,
CBSS,"Cambronne",,47.20658880,-1.50644117,,,1,,
CBTE,"Choblèterie",,47.13620786,-1.46153344,,,1,,
CCAN,"Couchant",,47.26838555,-1.59953772,,,1,,
CCDI,"Cochardières",,47.22994281,-1.63320361,,,1,,
CCHA,"Couchant",,47.27020292,-1.51366167,,,1,,
CCLA,"Cimetière de la Classerie",,47.17078005,-1.55894662,,,1,,
CCOU,"Champ de Courses",,47.24498315,-1.56197183,,,1,,
CCRE,"Chêne Creux",,47.17040404,-1.54874939,,,1,,
CDAN,"Chêne des Anglais",,47.26152094,-1.57362988,,,1,,
CDCO,"Cité des Congrès",,47.21367185,-1.54501797,,,1,,
CDMA,"Champ de Manoeuvre",,47.27270482,-1.50074174,,,1,,
CEDR,"Cèdre",,47.29944073,-1.56025341,,,1,,
CEER,"Chapellerie",,47.28291508,-1.42312581,,,1,,
CELL,"Le Cellier",,47.32361957,-1.34771920,,,1,,
CFOI,"Champ de Foire",,47.12461313,-1.61853879,,,1,,
CGAU,"Cimetière de la Gaudinière",,47.24292433,-1.58285056,,,1,,
CGLA,"Chêne Gala",,47.18315380,-1.53923829,,,1,,
CHAB,"Chabossière",,47.21544882,-1.68236264,,,1,,
CHBE,"Chambelles",,47.23162967,-1.53058634,,,1,,
CHER,"La Cochère",,47.20044448,-1.77824516,,,1,,
CHFL,"Champ Fleuri",,47.14406886,-1.52571786,,,1,,
CHGN,"Châtaigniers",,47.22215639,-1.60287866,,,1,,
CHIN,"La Chesnaie",,47.28165303,-1.53751539,,,1,,
CHLI,"Cholière",,47.25102707,-1.60672562,,,1,,
CHME,"Charmes",,47.19080195,-1.46104727,,,1,,
CHNI,"Charbonnière",,47.26387299,-1.64181008,,,1,,
CHOC,"Chocolaterie",,47.24270600,-1.52794880,,,1,,
CHPO,"Champonnière",,47.16365142,-1.50573699,,,1,,
CHRE,"Chalâtres",,47.23108993,-1.53861300,,,1,,
CHSS,"Chaussée",,47.17664867,-1.52106736,,,1,,
CHTE,"Châtelets",,47.19725099,-1.54052347,,,1,,
CHVE,"Chauvais",,47.33733351,-1.57163166,,,1,,
CHZY,"Chanzy",,47.22353823,-1.54542983,,,1,,
CIFA,"CIFAM",,47.26672891,-1.48814027,,,1,,
CIGL,"Chai Gallais",,47.13687684,-1.72161486,,,1,,
CIVL,"Circuit du Vallon",,47.27365771,-1.44735100,,,1,,
CJOS,"Cimetière de St-Joseph-de-Porterie",,47.26813697,-1.52158403,,,1,,
CLAM,"Clos Ami",,47.21227700,-1.65700840,,,1,,
CLBO,"Clos Bonnet",,47.18917694,-1.56358856,,,1,,
CLET,"Clétras",,47.25552965,-1.51075294,,,1,,
CLGE,"Chalonges",,47.18916104,-1.47255701,,,1,,
CLMO,"Cimetière La Montagne",,47.18729268,-1.68645864,,,1,,
CLNA,"Colonac",,47.22412843,-1.60315611,,,1,,
CLOT,"Clotais",,47.19302513,-1.71820783,,,1,,
CLPT,"Clépettre",,47.29664257,-1.54707526,,,1,,
CLRO,"Clos Roux",,47.19812466,-1.74978398,,,1,,
CLSE,"Closeaux",,47.23995337,-1.62759856,,,1,,
CLTT,"Châlet",,47.23000511,-1.54408774,,,1,,
CLUE,"Clouet",,47.16753189,-1.51090184,,,1,,
CLZE,"Clouzeaux",,47.17930576,-1.49272643,,,1,,
CMAR,"Cirque - Marais",,47.21805985,-1.55724699,,,1,,
CMCI,"Clémencière",,47.26944711,-1.43567411,,,1,,
CMLL,"Charmille",,47.25717693,-1.60598862,,,1,,
CMNE,"Commune 1871",,47.19933781,-1.49970975,,,1,,
CMOU,"Clos du Moulin",,47.14511753,-1.52130508,,,1,,
CMRA,"Cormerais",,47.19475301,-1.62715773,,,1,,
CMSY,"Carrière Misery",,47.19978561,-1.58008758,,,1,,
CMUS,"Camus",,47.21913271,-1.57264675,,,1,,
CNAV,"Chantiers Navals",,47.20895696,-1.56727727,,,1,,
CNCE,"Chenonceau",,47.27263937,-1.43444392,,,1,,
CNGO,"Congo",,47.23965236,-1.61011890,,,1,,
CNLA,"Canal",,47.21611800,-1.47170042,,,1,,
CNNT,"Chemin Nantais",,47.28869323,-1.43372399,,,1,,
CNON,"Chinon",,47.27416824,-1.42899425,,,1,,
CNTR,"Centaure",,47.17007260,-1.62717988,,,1,,
CNVR,"Chêne Vert",,47.28625269,-1.43950764,,,1,,
COAY,"Corlay",,47.20794884,-1.64412854,,,1,,
COCH,"Cochard",,47.22459407,-1.54964461,,,1,,
COET,"Les Couëts",,47.18064454,-1.58674555,,,1,,
COHO,"Chohonnière",,47.26319622,-1.48603530,,,1,,
COLI,"Colinière",,47.23588381,-1.50841400,,,1,,
COMM,"Commerce",,47.21357223,-1.55598188,,,1,,
CONI,"Corniche",,47.25287901,-1.59469212,,,1,,
COQU,"Coquelicots",,47.22246368,-1.72890142,,,1,,
CORA,"Conraie",,47.26084370,-1.58826584,,,1,,
COST,"Cousteau",,47.23978169,-1.51305831,,,1,,
COTA,"Coutancière",,47.30620126,-1.56008462,,,1,,
COUD,"Coudray",,47.23249311,-1.54241706,,,1,,
CP3R,"Chapelles",,47.16354476,-1.53847942,,,1,,
CP4L,"Chapelle Laënnec",,47.23536751,-1.63783808,,,1,,
CPER,"Copernic",,47.21486324,-1.56468115,,,1,,
CPGT,"Capitaine Grant",,47.26183568,-1.66944367,,,1,,
CPRE,"Chaupières",,47.24317344,-1.49505175,,,1,,
CPTE,"Chapelet",,47.13210719,-1.64152997,,,1,,
CQGU,"Chat-qui-Guette",,47.19196413,-1.69711679,,,1,,
CQLU,"Coqueluchon",,47.18410051,-1.47034749,,,1,,
CRAI,"Clairais",,47.27556478,-1.43862013,,,1,,
CRBE,"Corberie",,47.15241896,-1.52381138,,,1,,
CRCE,"Courocerie",,47.25176590,-1.49937116,,,1,,
CREZ,"Château de Rezé",,47.18480505,-1.55970300,,,1,,
CRME,"Crémetterie",,47.21827616,-1.60835679,,,1,,
CRNO,"Corbon",,47.21332134,-1.46092737,,,1,,
CROU,"Chemin Rouge",,47.25169783,-1.51761998,,,1,,
CRPO,"Criport",,47.15831755,-1.50363779,,,1,,
CRQU,"Place du Cirque",,47.21697621,-1.55679798,,,1,,
CRRO,"Claire Roman",,47.15472868,-1.59131723,,,1,,
CRSA,"Croissant",,47.24101799,-1.52994279,,,1,,
CRTI,"Crétinières",,47.27653350,-1.55315709,,,1,,
CRVA,"Cravate",,47.24336474,-1.58843772,,,1,,
CSAY,"Chassay",,47.24585103,-1.48492755,,,1,,
CSCL,"Cimetière St-Clair",,47.21667619,-1.59297036,,,1,,
CSER,"La Chapelle-sur-Erdre",,47.29942423,-1.55005779,,,1,,
CSGR,"Cassegrain",,47.18778887,-1.48950197,,,1,,
CSHB,"Carrières",,47.20824804,-1.63807066,,,1,,
CSIB,"Clos Siban",,47.21021181,-1.64641182,,,1,,
CSMP,"Casimir Périer",,47.23198412,-1.56816468,,,1,,
CSRI,"Classerie",,47.16808464,-1.55875054,,,1,,
CSTA,"Collège Ste-Anne",,47.29495652,-1.49241167,,,1,,
CSTE,"Casterneau",,47.22714308,-1.53277404,,,1,,
CSVA,"Conservatoire",,47.20704960,-1.53303919,,,1,,
CTAR,"Cotalard",,47.28614972,-1.53770908,,,1,,
CTBO,"Coteaux",,47.18437689,-1.66932799,,,1,,
CTEU,"Caboteurs",,47.18638564,-1.58743057,,,1,,
CTIE,"Châtelier",,47.18484027,-1.59313035,,,1,,
CTLI,"Courteline",,47.23657256,-1.58688127,,,1,,
CTNS,"Carterons",,47.21822349,-1.73928815,,,1,,
CTOR,"Clos Toreau",,47.19439301,-1.52908506,,,1,,
CTRE,"Chantrerie",,47.28179922,-1.51701187,,,1,,
CTYY,"Coty",,47.24898498,-1.48819363,,,1,,
CUGA,"Gare de Couëron",,47.22181322,-1.72435658,,,1,,
CUIE,"Chausserie",,47.14946482,-1.70434728,,,1,,
CUPI,"Coupries",,47.19158591,-1.46731259,,,1,,
CURI,"Curie",,47.19046894,-1.48744749,,,1,,
CUVI,"Cuvier",,47.21046286,-1.57333508,,,1,,
CVBL,"Cheveux Blancs",,47.26545709,-1.63504746,,,1,,
CVDO,"Cimetière de Vieux Doulon",,47.23849235,-1.50040266,,,1,,
CVER,"Chapeau Verni",,47.18903931,-1.50874841,,,1,,
CVLE,"Chevalerie",,47.25221480,-1.54517072,,,1,,
CVNI,"Chauvinière",,47.25157511,-1.57210879,,,1,,
CVRN,"Cheverny",,47.24595568,-1.60489667,,,1,,
CVTI,"Convention",,47.21145223,-1.58662535,,,1,,
CXFS,"Croix des Fosses",,47.21251409,-1.46628916,,,1,,
CZIN,"Chézine",,47.23372865,-1.59897057,,,1,,
DAKK,"Danemark",,47.26097867,-1.49857702,,,1,,
DALB,"Dalby",,47.22564089,-1.52922790,,,1,,
DANU,"Danube",,47.30455016,-1.50183802,,,1,,
DAVU,"Davum",,47.26475017,-1.49620153,,,1,,
DAYA,"Dayat",,47.20086884,-1.67426307,,,1,,
DCAN,"Duchesse Anne-Château",,47.21630505,-1.54705966,,,1,,
DCFF,"Du Chaffault",,47.20748089,-1.58157605,,,1,,
DEMO,"Desmoulins",,47.23347087,-1.52133117,,,1,,
DERV,"Dervallières",,47.22879628,-1.59834319,,,1,,
DIAN,"Diane",,47.23966265,-1.57811502,,,1,,
DIDE,"Espace Diderot",,47.18451832,-1.56285281,,,1,,
DLCR,"Delacroix",,47.22360815,-1.58936784,,,1,,
DLLE,"Drillet",,47.23483550,-1.66623091,,,1,,
DLME,"Delorme",,47.21537117,-1.56404403,,,1,,
DMAI,"Domaine",,47.17844857,-1.46968144,,,1,,
DMUR,"Dumont d'Urville",,47.22587166,-1.63633918,,,1,,
DNAI,"Danais",,47.21364221,-1.58976012,,,1,,
DOCE,"Doucet",,47.27796857,-1.63266866,,,1,,
DOLT,"Dolto",,47.21650999,-1.63617274,,,1,,
DOME,"Doumer",,47.22164900,-1.57811882,,,1,,
DOTT,"Douettée",,47.20773331,-1.49912218,,,1,,
DPTE,"Déportés",,47.19715306,-1.49228559,,,1,,
DRAD,"Désirade",,47.27784786,-1.48417198,,,1,,
DRID,"Druides",,47.23861884,-1.50742048,,,1,,
DRLA,"Drouillard",,47.18013487,-1.67733351,,,1,,
DROI,"Droitière",,47.30794338,-1.37325031,,,1,,
DSAI,"Desaix",,47.22624932,-1.54328641,,,1,,
DSNE,"Desnerie",,47.27793949,-1.54081936,,,1,,
DUKA,"Dukas",,47.23522868,-1.60251920,,,1,,
DUNA,"Dunant",,47.24391081,-1.52155536,,,1,,
DUTR,"Duguay Trouin",,47.22429674,-1.61665433,,,1,,
EBCA,"Embarcadère",,47.19408468,-1.64653306,,,1,,
ECBU,"Écobuts",,47.19393956,-1.50764703,,,1,,
ECHO,"Échoppes",,47.14306629,-1.68643787,,,1,,
ECOS,"Écosse",,47.21511407,-1.52622014,,,1,,
ECSU,"École Centrale-Audencia",,47.24812474,-1.55161943,,,1,,
ECTE,"Enchanterie",,47.23061054,-1.52337263,,,1,,
EDIP,"Edith Piaf",,47.22827482,-1.62408849,,,1,,
EDNA,"Édit de Nantes",,47.21443813,-1.56845711,,,1,,
EDRE,"Erdreau",,47.29114983,-1.50127235,,,1,,
EGAN,"Eglantine",,47.23517102,-1.58836532,,,1,,
EGLI,"Egalité",,47.20922862,-1.58844494,,,1,,
EINS,"Einstein",,47.26413048,-1.57104228,,,1,,
ELIS,"Eglise",,47.16854462,-1.72018447,,,1,,
EMBE,"Embellie",,47.26472122,-1.51869135,,,1,,
ENCO,"Ennerie - Corbon",,47.14187671,-1.70496308,,,1,,
EPEL,"Écoles",,47.19752281,-1.75912140,,,1,,
EPIN,"Épinais",,47.13623648,-1.61055297,,,1,,
EPYY,"Epinay",,47.29234637,-1.48692971,,,1,,
EQPE,"Équipement",,47.22381394,-1.57536864,,,1,,
ERAC,"Erdre Active",,47.28314269,-1.54410872,,,1,,
ERDI,"Éraudière",,47.24261575,-1.53520295,,,1,,
ESCA,"Escall",,47.19939893,-1.50328200,,,1,,
ESOR,"Écoles",,47.14665823,-1.52907292,,,1,,
ESUE,"Eugène Sue",,47.23328862,-1.59602902,,,1,,
EUCA,"Europe",,47.26016529,-1.50407499,,,1,,
EUVE,"Europe",,47.17300614,-1.47629459,,,1,,
EVET,"École Vétérinaire",,47.29095344,-1.52336413,,,1,,
EVRD,"Evardière",,47.29879071,-1.56616373,,,1,,
FACU,"Facultés",,47.24682767,-1.55536079,,,1,,
FADI,"Fardière",,47.19841902,-1.60694590,,,1,,
FALI,"Fallières",,47.22493741,-1.57941718,,,1,,
FANE,"Faneurs",,47.21377376,-1.70193386,,,1,,
FATA,"Fantaisie",,47.25283697,-1.56942314,,,1,,
FAUV,"Fauvelière",,47.28299968,-1.50531922,,,1,,
FBAU,"François Baudry",,47.26228759,-1.67199149,,,1,,
FBLA,"Fresche Blanc",,47.25290149,-1.55686119,,,1,,
FDDR,"Fac de Droit",,47.24369562,-1.55209091,,,1,,
FDLE,"Fac de Lettres",,47.24541603,-1.55181925,,,1,,
FERI,"Ferrière",,47.24445633,-1.59076630,,,1,,
FFAU,"Félix Faure",,47.22698903,-1.56938663,,,1,,
FGRI,"Fief Guérin",,47.14388036,-1.66049085,,,1,,
FLAN,"Flandre",,47.28575364,-1.54681321,,,1,,
FLEU,"Fleuriaye",,47.29920327,-1.50012990,,,1,,
FLRI,"Floride",,47.21348186,-1.60369399,,,1,,
FLTR,"Flora Tristan",,47.17579736,-1.54372512,,,1,,
FLUR,"Fleurs",,47.21590864,-1.71809144,,,1,,
FMIT,"François Mitterrand",,47.22203468,-1.63790515,,,1,,
FNLL,"Fresnel",,47.24286067,-1.52333113,,,1,,
FNSO,"Fenaison",,47.26970664,-1.59248947,,,1,,
FOCH,"Foch-Cathédrale",,47.21879002,-1.55055815,,,1,,
FOND,"Fonderies",,47.20641203,-1.54396268,,,1,,
FORU,"Forum d'Orvault",,47.25443054,-1.61517856,,,1,,
FOTA,"Fontaine",,47.20554189,-1.48918540,,,1,,
FOUL,"Foulquier",,47.30972771,-1.54630536,,,1,,
FRAC,"Frachon",,47.21895013,-1.62022527,,,1,,
FRBA,"Frébaudière",,47.27223426,-1.62655239,,,1,,
FRCH,"Fraîches",,47.17455019,-1.48948053,,,1,,
FRET,"Forêt",,47.24434320,-1.57554795,,,1,,
FRGA,"Frégate",,47.23524567,-1.47610372,,,1,,
FRII,"François II",,47.21848493,-1.68311956,,,1,,
FRKL,"Franklin",,47.22590418,-1.61968194,,,1,,
FRMO,"Frémoire",,47.15328061,-1.47634280,,,1,,
FRNE,"Frênes",,47.25323850,-1.48757200,,,1,,
FRON,"Frêne Rond",,47.19026089,-1.49641680,,,1,,
FRRR,"Frères Rousseau",,47.12616001,-1.62855094,,,1,,
FTAB,"Félix Tableau",,47.18801317,-1.54738515,,,1,,
FTDO,"Fructidor",,47.24010857,-1.55963273,,,1,,
GADO,"Gandonnière",,47.30703916,-1.54054855,,,1,,
GAGN,"Gagnerie",,47.23223523,-1.50709391,,,1,,
GAIL,"Garillère",,47.19240751,-1.52114610,,,1,,
GALH,"Galheur",,47.16673615,-1.57991548,,,1,,
GAMB,"Gambetta",,47.22361937,-1.53846843,,,1,,
GATI,"Gâtine",,47.21341590,-1.66053039,,,1,,
GAUT,"Gautellerie",,47.17741844,-1.60209659,,,1,,
GBLO,"Grand Blottereau",,47.22975836,-1.51114692,,,1,,
GBNI,"Guiblinière",,47.29240267,-1.52042422,,,1,,
GBTA,"Grande-Bretagne",,47.26220784,-1.50223727,,,1,,
GCAR,"Grand Carcouët",,47.23109211,-1.59176840,,,1,,
GCEN,"Grande Censive",,47.25205925,-1.54978913,,,1,,
GCHE,"Gachet",,47.29264726,-1.52388364,,,1,,
GCSO,"Glacisol",,47.25150915,-1.50437908,,,1,,
GDCH,"Gare de Chantenay",,47.19779136,-1.59368488,,,1,,
GDEN,"Goldens",,47.16205211,-1.49967993,,,1,,
GDFI,"Grand Fief",,47.12563088,-1.62560840,,,1,,
GDNN,"Gendronnerie",,47.12732846,-1.63906358,,,1,,
GDOU,"Grande Ouche",,47.18133597,-1.57966252,,,1,,
GDPI,"Grande Pièce",,47.19907160,-1.51039424,,,1,,
GDRE,"Guindré",,47.23950772,-1.53737156,,,1,,
GELL,"Grande Noëlle",,47.16232808,-1.50220869,,,1,,
GERA,"Géraudière",,47.26173999,-1.56716305,,,1,,
GESV,"Gesvrine",,47.26981296,-1.55213869,,,1,,
GEVR,"Gesvres",,47.26362612,-1.54864554,,,1,,
GGAU,"Gergaudière",,47.28965609,-1.58588183,,,1,,
GGNO,"Grignon",,47.21647189,-1.46643829,,,1,,
GGUI,"Gauguin",,47.16669088,-1.55468713,,,1,,
GIAR,"Gilarderie",,47.18589884,-1.68252224,,,1,,
GIBR,"Gibraye",,47.20495660,-1.51755738,,,1,,
GIND,"Gare d'Indre",,47.20496928,-1.66254284,,,1,,
GIQU,"Gicquelière",,47.25814223,-1.45908439,,,1,,
GLAU,"Grillaud",,47.22027019,-1.58158736,,,1,,
GLDE,"Grande Lande",,47.19229235,-1.49761927,,,1,,
GLEI,"Grolerie",,47.17268334,-1.47244142,,,1,,
GLIE,"Gilière",,47.29922316,-1.55335302,,,1,,
GLNE,"Galarne",,47.20814414,-1.52994633,,,1,,
GLOU,"Grange au Loup",,47.26383873,-1.51545241,,,1,,
GMAR,"Gare Maritime",,47.20705322,-1.57295377,,,1,,
GMOL,"Guy Mollet",,47.24928020,-1.55474569,,,1,,
GNRA,"Greneraie",,47.19948912,-1.53288896,,,1,,
GOBI,"Gobinière",,47.24963128,-1.58691364,,,1,,
GOLF,"Golf",,47.23649968,-1.60486096,,,1,,
GONI,"Gournière",,47.26837456,-1.54938768,,,1,,
GPOR,"Grand Portail",,47.20142037,-1.52364591,,,1,,
GPRO,"Gare de Pont Rousseau",,47.19308111,-1.54933848,,,1,,
GRAM,"Grammoire",,47.18365395,-1.47295778,,,1,,
GRCH,"Grand Chemin",,47.19727269,-1.78381640,,,1,,
GRET,"Gare de l'Etat",,47.20396460,-1.56043723,,,1,,
GRIM,"Grimm",,47.21618687,-1.64553470,,,1,,
GRMA,"Grimau",,47.22829746,-1.65476667,,,1,,
GROR,"Garenne",,47.26509152,-1.62734593,,,1,,
GRPO,"Gripots",,47.19248962,-1.49168774,,,1,,
GRTE,"Garotterie",,47.22499944,-1.60665786,,,1,,
GRVI,"Guérivières",,47.20518393,-1.46735410,,,1,,
GRZI,"Grezillières",,47.21436811,-1.47831696,,,1,,
GSAN,"George Sand",,47.16575765,-1.54497861,,,1,,
GSEN,"Grasse Noue",,47.28024494,-1.58188223,,,1,,
GSIN,"Grassinière",,47.16574186,-1.50786789,,,1,,
GSNO,"Gare Nord",,47.21782151,-1.54214643,,,1,,
GSSU,"Gare Sud",,47.21592585,-1.54227337,,,1,,
GTAE,"Grootaers",,47.23942504,-1.58510682,,,1,,
GTLA,"Garettes-Landreau",,47.27325700,-1.63086301,,,1,,
GTVE,"Gaston Veil",,47.21016254,-1.55560165,,,1,,
GULO,"Guilloterie",,47.17236984,-1.55721314,,,1,,
GURO,"Gustave Roch",,47.20406998,-1.55198669,,,1,,
GVNO,"Gare de Vertou Nord",,47.18707351,-1.47848557,,,1,,
GVSU,"Gare de Vertou Sud",,47.18587233,-1.47668256,,,1,,
HALU,"Haluchère-Batignolles",,47.24936057,-1.52287449,,,1,,
HARO,"Harouys",,47.21707431,-1.56694425,,,1,,
HAUB,"Haubans",,47.21462644,-1.53001825,,,1,,
HAVE,"Halvêque",,47.25746288,-1.52028452,,,1,,
HBAN,"Hangar à Bananes",,47.20048109,-1.57287010,,,1,,
HBDE,"Halbarderie",,47.26829118,-1.43797408,,,1,,
HBLI,"Hôpital Bellier",,47.22130324,-1.52428746,,,1,,
HBRA,"Herbray",,47.15048552,-1.47099504,,,1,,
HCOU,"Hauts de Couëron",,47.24056965,-1.66970210,,,1,,
HDIE,"Haudrière",,47.15447112,-1.46758151,,,1,,
HERM,"Hermeland",,47.22979068,-1.61666372,,,1,,
HFLE,"Hameau Fleuri",,47.25106430,-1.58979665,,,1,,
HFVE,"Haute Forêt",,47.16831427,-1.46565950,,,1,,
HGNR,"Haute Gournière",,47.26786564,-1.54577813,,,1,,
HILE,"Haute Ile",,47.19464662,-1.55632322,,,1,,
HIND,"Haute Indre",,47.19540815,-1.64993520,,,1,,
HIPP,"Hippodrome",,47.24758084,-1.56771648,,,1,,
HLAN,"Haute Lande",,47.15386538,-1.52365156,,,1,,
HLLR,"Hillière",,47.28782561,-1.42995678,,,1,,
HMLL,"Houmaille",,47.18910344,-1.58696919,,,1,,
HODI,"Hôtel Dieu",,47.21151388,-1.55292423,,,1,,
HOGR,"Hongrie",,47.21590797,-1.52403029,,,1,,
HOSE,"Housseau",,47.28107173,-1.49829865,,,1,,
HPLA,"Hôpital Laënnec",,47.23688456,-1.64086027,,,1,,
HREG,"Hôtel de Région",,47.21034330,-1.52614007,,,1,,
HRLL,"Hérelle",,47.20163226,-1.58669837,,,1,,
HVCQ,"Mairie de Carquefou",,47.29889879,-1.49031126,,,1,,
HVNA,"Hôtel de Ville",,47.21774454,-1.55431579,,,1,,
ICAM,"ICAM",,47.27365801,-1.50186879,,,1,,
ICOU,"ICO",,47.23850738,-1.63820369,,,1,,
IDFR,"Île de France",,47.16941272,-1.46785057,,,1,,
IDLO,"Îles de Loire",,47.21028204,-1.49018517,,,1,,
IDNA,"Ile de Nantes",,47.20631111,-1.53893314,,,1,,
IMPR,"Imprimeurs",,47.23866470,-1.67008841,,,1,,
INLA,"Internat Laënnec",,47.23500246,-1.64058805,,,1,,
INRE,"Indre",,47.20116504,-1.66833797,,,1,,
IROI,"Iroise",,47.24821942,-1.53649491,,,1,,
ISLE,"Islettes",,47.26333978,-1.47625538,,,1,,
IUTH,"IUT",,47.29788592,-1.50453644,,,1,,
JALI,"Jalière",,47.26424401,-1.59685112,,,1,,
JAME,"Jamet",,47.21000952,-1.60251303,,,1,,
JANA,"Jaunais",,47.17604452,-1.53370427,,,1,,
JAPY,"Japy",,47.25928122,-1.51168440,,,1,,
JARI,"Jarriais",,47.21293011,-1.71826229,,,1,,
JAUR,"Jacqueline Auriol",,47.27133541,-1.47140072,,,1,,
JBAR,"Jean Bart",,47.19920583,-1.67546000,,,1,,
JBNA,"Jeanne Bernard",,47.23525187,-1.59128052,,,1,,
JCAR,"Jacques Cartier",,47.22398045,-1.63633093,,,1,,
JCOU,"Joncours",,47.22000538,-1.58672381,,,1,,
JDGA,"Jardins de Gaïa",,47.15758297,-1.67828442,,,1,,
JFER,"Jules Ferry",,47.25072273,-1.48739206,,,1,,
JFRA,"Jean Fraix",,47.18603448,-1.54195702,,,1,,
JGUE,"Jaguère",,47.17552586,-1.56774566,,,1,,
JHDI,"Jahardières",,47.12539960,-1.64274770,,,1,,
JJCE,"Jean Jaurès",,47.30132429,-1.54979885,,,1,,
JJNA,"Jean Jaurès",,47.21838897,-1.56003382,,,1,,
JLIE,"Joliverie",,47.18994470,-1.51938315,,,1,,
JLVE,"Joliverie",,47.18958808,-1.51658293,,,1,,
JMAC,"Jean Macé",,47.20054697,-1.58920901,,,1,,
JMLI,"Jean Moulin",,47.20712579,-1.59992166,,,1,,
JMON,"Jean Monnet",,47.16626072,-1.46511753,,,1,,
JNAI,"Jaunaie",,47.21889815,-1.72783718,,,1,,
JNEA,"Jauneau",,47.27374646,-1.45013606,,,1,,
JNIG,"Jean Ingres",,47.22227374,-1.59680573,,,1,,
JNLI,"Jonelière",,47.25173237,-1.54077058,,,1,,
JOTE,"Jouetterie",,47.13147138,-1.66246897,,,1,,
JPER,"Jean Perrin",,47.18125645,-1.56076577,,,1,,
JPTR,"Jupiter",,47.28480858,-1.45608170,,,1,,
JROS,"Jean Rostand",,47.24579942,-1.59364253,,,1,,
JTIC,"Justice",,47.20937366,-1.63154531,,,1,,
JUIV,"Juiverie",,47.21077751,-1.62477596,,,1,,
JUME,"Jumelière",,47.29430114,-1.48773150,,,1,,
JVAL,"Jules Vallès",,47.17343751,-1.57089550,,,1,,
JVNA,"Jules Verne",,47.24891698,-1.51728725,,,1,,
JVRA,"Janvraie",,47.19994542,-1.61234453,,,1,,
KERE,"Keren",,47.24477516,-1.53338866,,,1,,
KOEN,"Koenig",,47.19812088,-1.61564579,,,1,,
KOUF,"Koufra",,47.25026878,-1.53098214,,,1,,
LABE,"Lac de Beaulieu",,47.21942035,-1.69244445,,,1,,
LACH,"L'Arche",,47.21291368,-1.70847863,,,1,,
LADO,"Ladoumègue",,47.29614184,-1.48653946,,,1,,
LAGE,"Largeau",,47.19503280,-1.50997182,,,1,,
LAHA,"La Haie",,47.26094875,-1.47502649,,,1,,
LAIL,"Les Ailes",,47.17116491,-1.57416373,,,1,,
LALL,"Lallié",,47.22799740,-1.54486760,,,1,,
LAMA,"Lamartine",,47.21649203,-1.57879900,,,1,,
LANA,"Launay",,47.26546265,-1.63226920,,,1,,
LAUR,"Lauriers",,47.20470843,-1.60476610,,,1,,
LAXX,"La Croix",,47.16527571,-1.48670499,,,1,,
LBAU,"Les Bauches",,47.26336633,-1.67723271,,,1,,
LBER,"Lindbergh",,47.15502934,-1.59833750,,,1,,
LBOS,"La Brosse",,47.33298939,-1.56959138,,,1,,
LBPI,"L'Ebaupin",,47.17161474,-1.51000653,,,1,,
LBUS,"Les Buissons",,47.27828439,-1.44357626,,,1,,
LCAR,"Le Cardo",,47.26169710,-1.58435937,,,1,,
LCBU,"Le Corbusier",,47.19017971,-1.56855029,,,1,,
LCEE,"La Carrée",,47.16849749,-1.54385650,,,1,,
LCLE,"La Coulée",,47.26013301,-1.57471905,,,1,,
LCNE,"Le Chêne",,47.16526458,-1.48432715,,,1,,
LCOG,"La Cogne",,47.28692948,-1.55735542,,,1,,
LCSE,"La Close",,47.24083446,-1.57277848,,,1,,
LCTE,"La Côte",,47.28204741,-1.56057316,,,1,,
LDAS,"Landas",,47.16933769,-1.51076745,,,1,,
LDRE,"Landreau",,47.23247930,-1.51597058,,,1,,
LDSS,"Landas",,47.17436501,-1.55947162,,,1,,
LEBP,"L'Ebaupin",,47.28430869,-1.44387011,,,1,,
LECH,"Lechat",,47.20407259,-1.58089035,,,1,,
LEGU,"Leygues",,47.20314541,-1.54200777,,,1,,
LEVO,"Levoyer",,47.19387396,-1.58176916,,,1,,
LFAU,"Les Faulx",,47.15722956,-1.52270565,,,1,,
LFER,"La Ferme",,47.26424888,-1.68034232,,,1,,
LFLE,"Laurier Fleuri",,47.18834076,-1.48372835,,,1,,
LFOR,"La Forêt",,47.14947537,-1.63938699,,,1,,
LFVR,"Lefeuvre",,47.26686052,-1.49502977,,,1,,
LGAR,"La Garde",,47.25576216,-1.50918227,,,1,,
LGOF,"Le Goffic",,47.23038709,-1.56345987,,,1,,
LGRI,"La Grille",,47.25099185,-1.48198826,,,1,,
LGTH,"Lagathu",,47.18036290,-1.53652635,,,1,,
LHAC,"La Hache",,47.26222776,-1.49893123,,,1,,
LHER,"La Herdrie",,47.19778397,-1.45414308,,,1,,
LHIE,"La Haie",,47.29013176,-1.54249845,,,1,,
LHLE,"Le Halleray",,47.26975159,-1.45660101,,,1,,
LHOU,"La Houssais",,47.17428702,-1.55378624,,,1,,
LHPI,"L'Hopitau",,47.27226546,-1.55152318,,,1,,
LIBE,"Libération",,47.17728552,-1.67896934,,,1,,
LILA,"Lilas",,47.13767580,-1.46889686,,,1,,
LION,"Lionnière",,47.21866696,-1.69595730,,,1,,
LIPP,"Lippmann",,47.23890585,-1.52040083,,,1,,
LITT,"Littré",,47.21772316,-1.58232618,,,1,,
LJOS,"Léon Jost",,47.23629112,-1.56332179,,,1,,
LLGR,"Léo Lagrange",,47.29699568,-1.55530903,,,1,,
LLIO,"Les Lions",,47.24991585,-1.61550625,,,1,,
LLMO,"Le Clémois",,47.13729352,-1.72257048,,,1,,
LLOR,"La Lorie",,47.23524557,-1.65700442,,,1,,
LMAR,"La Marche",,47.18067739,-1.65914283,,,1,,
LMBR,"Lambert",,47.17089014,-1.53967137,,,1,,
LMEE,"La martinière",,47.20633168,-1.78491058,,,1,,
LMIC,"Louise Michel",,47.21936503,-1.61338144,,,1,,
LMNE,"Lemoine",,47.23544599,-1.54753720,,,1,,
LMRI,"Lamoricière",,47.21447789,-1.57259745,,,1,,
LMTA,"La Montagne",,47.18845833,-1.68918890,,,1,,
LNAI,"Le Nain",,47.22701270,-1.60045972,,,1,,
LNOU,"La Noue",,47.14075627,-1.60745376,,,1,,
LNTT,"Linot",,47.26547109,-1.52589009,,,1,,
LOIR,"Loire",,47.24840854,-1.48656524,,,1,,
LOMB,"Lombarderie",,47.23359919,-1.55556179,,,1,,
LONG,"Longchamp",,47.23484287,-1.58212605,,,1,,
LPBA,"Bac du Pellerin",,47.20289715,-1.75490668,,,1,,
LPEL,"Le Pellerin",,47.20066234,-1.75949387,,,1,,
LPLE,"La Plée",,47.19318013,-1.46266938,,,1,,
LPME,"La Plume",,47.19492160,-1.50520704,,,1,,
LRAY,"Le Gray 1",,47.28422067,-1.58680640,,,1,,
LRCH,"La Roche",,47.21643070,-1.51917709,,,1,,
LRHE,"Les Roches",,47.26373177,-1.58014242,,,1,,
LRNE,"Lourneau",,47.19956800,-1.49007979,,,1,,
LRYA,"Le Gray 2",,47.28331767,-1.58422529,,,1,,
LSAL,"La Salle",,47.21431572,-1.68901950,,,1,,
LSLL,"Les Salles",,47.25038934,-1.53597752,,,1,,
LSOU,"La Source",,47.30567326,-1.55170423,,,1,,
LSYY,"Léon Say",,47.22960794,-1.56918121,,,1,,
LTOU,"Le Tour",,47.15160805,-1.68945617,,,1,,
LUNI,"Lieu Unique",,47.21561738,-1.54608443,,,1,,
LYBR,"Lycée Brottier",,47.16057526,-1.67771637,,,1,,
LYCQ,"Lycée Estienne d'Orves",,47.27939100,-1.49195803,,,1,,
LYOR,"Lycée d'Orbigny",,47.15426600,-1.68041263,,,1,,
LYPE,"Lycée Appert",,47.25167763,-1.61140346,,,1,,
LYRI,"Lycée Rieffel",,47.25547237,-1.64250784,,,1,,
LZCA,"Lusançay",,47.20268326,-1.58254635,,,1,,
MAAR,"Maillardière",,47.27404186,-1.63422975,,,1,,
MACH,"MIN",,47.20166722,-1.55379440,,,1,,
MADO,"Mandon",,47.16049398,-1.47065020,,,1,,
MAGA,"Gare de Mauves",,47.29318073,-1.38982980,,,1,,
MAI8,"8 Mai",,47.18921858,-1.55170053,,,1,,
MALL,"Mail",,47.26906222,-1.61136441,,,1,,
MARR,"Maison d'Arrêt",,47.26640432,-1.50333251,,,1,,
MASS,"Massigné",,47.29887798,-1.57954203,,,1,,
MATI,"Matière",,47.27639977,-1.44886845,,,1,,
MAUC,"Centre De Mauves",,47.29677512,-1.39286040,,,1,,
MAZE,"Mazères",,47.31362172,-1.35060463,,,1,,
MBLA,"Mont Blanc",,47.17674040,-1.55581380,,,1,,
MBOU,"Mairie de Bouguenais",,47.17901016,-1.61872647,,,1,,
MBRU,"Moulin Brûlé",,47.25946869,-1.65458039,,,1,,
MBSE,"Moulin Boisseau",,47.28838631,-1.48413143,,,1,,
MCAS,"Moulin Cassé",,47.25657559,-1.46836515,,,1,,
MCCO,"Marché Commun",,47.25967252,-1.49993852,,,1,,
MCHA,"Mairie de Chantenay",,47.20636707,-1.58783853,,,1,,
MCOU,"Mairie de Couëron",,47.21225494,-1.72720030,,,1,,
MCUR,"Madame Curie",,47.18912957,-1.55433651,,,1,,
MDAR,"Maison des Arts",,47.21189404,-1.61744309,,,1,,
MDEL,"Mandel",,47.20250088,-1.53707135,,,1,,
MDLA,"Moulin des Landes",,47.26199275,-1.48158345,,,1,,
MDNE,"Madeleine",,47.27534959,-1.48346404,,,1,,
MDOU,"Mairie de Doulon",,47.22699143,-1.51848401,,,1,,
MDPO,"Moulin de Porterie",,47.27583068,-1.51234680,,,1,,
MDRE,"Madoire",,47.26508756,-1.63793097,,,1,,
MDSI,"Mondésir",,47.21791022,-1.56885597,,,1,,
MDTH,"Médiathèque",,47.21116565,-1.56056518,,,1,,
MEDI,"Méditerranée",,47.27115536,-1.48501673,,,1,,
MELI,"Méliès",,47.18159213,-1.55616656,,,1,,
META,"Métairie",,47.21389385,-1.69850583,,,1,,
MGAL,"Marie Galante",,47.26417032,-1.45104526,,,1,,
MGCH,"Monge - Chauvinière",,47.25367321,-1.57398187,,,1,,
MGDR,"Mongendrière",,47.29242701,-1.55457907,,,1,,
MGEL,"Margelle",,47.27271181,-1.59416606,,,1,,
MGIN,"Mangin",,47.20160574,-1.54493569,,,1,,
MGLI,"Magnoliers",,47.22629784,-1.60556361,,,1,,
MGNO,"Mignonnerie",,47.24314439,-1.48235363,,,1,,
MGUA,"Mainguais",,47.28266905,-1.48544315,,,1,,
MHDI,"Mahaudières",,47.18892461,-1.56039923,,,1,,
MHUI,"Moulin à l'Huile",,47.17661629,-1.56214520,,,1,,
MIAI,"Minais",,47.25709013,-1.46641753,,,1,,
MICH,"Michelet",,47.23448288,-1.55739804,,,1,,
MIEA,"Millenia",,47.12393115,-1.63049753,,,1,,
MIMO,"Mimosas",,47.24123544,-1.58748790,,,1,,
MIND,"Mairie d'Indre",,47.20071585,-1.66830435,,,1,,
MITR,"Mitrie",,47.22784443,-1.52528847,,,1,,
MKSU,"Malakoff",,47.21644994,-1.52129347,,,1,,
MLAN,"Magellan",,47.18816871,-1.46442750,,,1,,
MLCH,"Morlachère",,47.16195320,-1.48369475,,,1,,
MLCS,"Moulin Cassé",,47.15584723,-1.70984686,,,1,,
MLDR,"Maladrie",,47.18828858,-1.49614345,,,1,,
MLHE,"Moulin Hérel",,47.21943384,-1.63757971,,,1,,
MLIN,"Moulin",,47.18888411,-1.50530220,,,1,,
MLLI,"Mellinet",,47.21178636,-1.57785983,,,1,,
MLNE,"Moulinets",,47.20990457,-1.62920545,,,1,,
MLON,"Mulonnière",,47.26556714,-1.54984512,,,1,,
MLRA,"Malraux",,47.25430780,-1.51767585,,,1,,
MMSS,"Mermoz",,47.19872011,-1.51552255,,,1,,
MNEF,"Moulin Neuf",,47.23021107,-1.51646831,,,1,,
MNFA,"Manufacture",,47.21880310,-1.53706201,,,1,,
MNIE,"Moulinier",,47.13515319,-1.66538374,,,1,,
MNOT,"Minoterie",,47.21686600,-1.72160133,,,1,,
MNSS,"Malnoue",,47.20265743,-1.50549809,,,1,,
MNTR,"Ménétrier",,47.24086637,-1.52371617,,,1,,
MNVE,"Maison Neuve",,47.27462384,-1.46726826,,,1,,
MOCT,"Moulin Collet",,47.20033329,-1.76620925,,,1,,
MOET,"Mouettes",,47.21055137,-1.74227284,,,1,,
MOIN,"Moinard",,47.21353271,-1.72928032,,,1,,
MONE,"Moinet",,47.26469759,-1.49236094,,,1,,
MORH,"Morrhonnière - Petit Port",,47.24148227,-1.55629426,,,1,,
MOTE,"Motte Rouge",,47.22879100,-1.55338727,,,1,,
MOUT,"Moutonnerie",,47.21956936,-1.53301942,,,1,,
MOVA,"Mairie d'Orvault",,47.27137293,-1.62278323,,,1,,
MOZI,"Monzie",,47.20339609,-1.53991144,,,1,,
MPAU,"Marcel Paul",,47.24576505,-1.61572851,,,1,,
MPER,"Millepertuis",,47.22194228,-1.67954515,,,1,,
MPMN,"Melpomène",,47.27759170,-1.50003396,,,1,,
MPTA,"Maison Poitard",,47.14700488,-1.64831344,,,1,,
MQDI,"Marquis de Dion",,47.29709079,-1.48779883,,,1,,
MQLI,"Mocquelière",,47.23313680,-1.61889461,,,1,,
MRAI,"Maraîchers",,47.18483142,-1.51069199,,,1,,
MRDI,"Maison Radieuse",,47.18791072,-1.56640295,,,1,,
MREZ,"Mairie de Rezé",,47.19130749,-1.56982174,,,1,,
MRGE,"Morges",,47.16495172,-1.47202356,,,1,,
MRIE,"Maurienne",,47.27561915,-1.44246145,,,1,,
MROT,"Moulin Rothard",,47.19590819,-1.74115678,,,1,,
MRRI,"Marrière",,47.23751111,-1.52439965,,,1,,
MRTE,"Marterie",,47.17846469,-1.53136943,,,1,,
MRZE,"Marzilles",,47.18274936,-1.47579961,,,1,,
MSHE,"Mairie de St-Herblain",,47.21093832,-1.64884522,,,1,,
MSLL,"Marseillaise",,47.20734188,-1.59094994,,,1,,
MSOR,"Mairie des Sorinières",,47.14882038,-1.53173735,,,1,,
MSSI,"Mississipi",,47.23716387,-1.60914177,,,1,,
MTEI,"Monteil",,47.21397444,-1.54940196,,,1,,
MTLI,"Martellière",,47.19916680,-1.52639054,,,1,,
MTRA,"Mortrais",,47.12837820,-1.61644107,,,1,,
MTYY,"Monty",,47.27421430,-1.43309950,,,1,,
MULI,"Mouline",,47.32355207,-1.55300628,,,1,,
MUNN,"Moulin",,47.19756669,-1.65158931,,,1,,
MVAN,"Mortier Vannerie",,47.18016469,-1.49939264,,,1,,
MVRD,"Monteverdi",,47.26657684,-1.44632051,,,1,,
MVSI,"Mauvoisins",,47.19027625,-1.52561680,,,1,,
MZUR,"Mazure",,47.25796702,-1.48076677,,,1,,
NATL,"Aéroport",,47.15789963,-1.60132141,,,1,,
NBEL,"Nouveau Bêle",,47.26879307,-1.50191635,,,1,,
NBLA,"Noé Blanche",,47.25654693,-1.50725445,,,1,,
NCTE,"Noé Cottée",,47.19409498,-1.47858966,,,1,,
NDRE,"Naudières",,47.17315290,-1.53666522,,,1,,
NETR,"Neustrie",,47.17591416,-1.59339984,,,1,,
NIAG,"Niagara",,47.30600333,-1.49333602,,,1,,
NILL,"Nil",,47.24178194,-1.60842447,,,1,,
NIZA,"Nizan",,47.20574949,-1.55025846,,,1,,
NLBR,"Noë Lambert",,47.23007878,-1.52849088,,,1,,
NLLA,"Noë Allais",,47.22036251,-1.68868129,,,1,,
NOAH,"Noë St Jean",,47.21918582,-1.73499847,,,1,,
NOHH,"North'House",,47.19577781,-1.57345153,,,1,,
NONO,"Noë Nozou",,47.13019092,-1.63703222,,,1,,
NOSH,"Noëlles",,47.24021028,-1.60434094,,,1,,
NRCA,"Noë Rocard",,47.16334738,-1.49052893,,,1,,
NRDA,"Neruda",,47.21756366,-1.61338063,,,1,,
NVER,"Noue Verrière",,47.27601666,-1.57111741,,,1,,
OBLA,"Ouche Blanche",,47.17952322,-1.56407418,,,1,,
OCAN,"Océane",,47.22750698,-1.63593175,,,1,,
OCEA,"Couëron Océan",,47.21345289,-1.73918909,,,1,,
OCOR,"Ouche Cormier",,47.26466582,-1.62400648,,,1,,
ODLA,"Ouche des landes",,47.19503341,-1.48288475,,,1,,
ODNE,"Ordronneau",,47.19383736,-1.57489540,,,1,,
OGVA,"Orvault Grand Val",,47.26297286,-1.59450834,,,1,,
OLIV,"Olivier",,47.21747321,-1.72482036,,,1,,
OLVE,"Oliveraie",,47.18855867,-1.53117399,,,1,,
OLYM,"Olympe de Gouges",,47.30874128,-1.55153035,,,1,,
OMRL,"Orvault - Morlière",,47.24700707,-1.60312240,,,1,,
ONCH,"Onchère",,47.20267245,-1.46704343,,,1,,
OQNE,"Ouche Quinet",,47.19603056,-1.50436169,,,1,,
ORNG,"La Chapelle Aulnay",,47.30840013,-1.54025010,,,1,,
ORVA,"Orvault",,47.27869769,-1.64026681,,,1,,
OSAN,"Ouessant",,47.27007669,-1.44670053,,,1,,
OTAG,"50 Otages",,47.21972956,-1.55554418,,,1,,
PABO,"Paix",,47.18243694,-1.59229338,,,1,,
PACQ,"Parc",,47.27263229,-1.48393143,,,1,,
PAEB,"Pablée",,47.21576063,-1.74015814,,,1,,
PAJO,"Petit Anjou",,47.20574746,-1.50466267,,,1,,
PALL,"Pont Allard",,47.19655292,-1.66627488,,,1,,
PAMI,"Palmiers",,47.19011839,-1.53300429,,,1,,
PAON,"Papillons",,47.14600562,-1.51899279,,,1,,
PAPO,"Parc Potager",,47.23612655,-1.52271286,,,1,,
PATR,"Pâtis Rondin",,47.24795511,-1.51642433,,,1,,
PB1B,"Parc de la Bouvre",,47.17610474,-1.61415268,,,1,,
PBAI,"Parc Bel Air",,47.17846266,-1.47470184,,,1,,
PBFF,"Paimboeuf",,47.17665160,-1.61921271,,,1,,
PBLE,"Pâtis Brûlé",,47.19926705,-1.50723684,,,1,,
PBOT,"Poulbot",,47.21329698,-1.64835997,,,1,,
PBRE,"Petit Breton",,47.21320386,-1.59865045,,,1,,
PBUY,"Pé de Buzay",,47.20250065,-1.81633789,,,1,,
PBYE,"Port Boyer",,47.24109903,-1.53879611,,,1,,
PBNV,"Port Boyer Navibus",,47.24210322,-1.54589148,,,1,,
PCBI,"Picabia",,47.25456749,-1.57682529,,,1,,
PCDI,"Picaudière",,47.27970844,-1.48509905,,,1,,
PCHA,"Portechaise",,47.20061763,-1.52609882,,,1,,
PCLO,"Petit Clos",,47.20530198,-1.50991704,,,1,,
PCNN,"Planchonnais",,47.25356803,-1.47489712,,,1,,
PCPE,"Porte de La Chapelle",,47.25937477,-1.55720037,,,1,,
PCRE,"Poincaré",,47.22284890,-1.58521365,,,1,,
PCSI,"Petite Censive",,47.26050778,-1.56098728,,,1,,
PCTI,"Petit Chantilly",,47.25456313,-1.60076891,,,1,,
PCVO,"Pontecorvo",,47.24671506,-1.53194191,,,1,,
PCZI,"Pont de Chézine",,47.23806578,-1.61436599,,,1,,
PDAN,"Pas d'Ane",,47.18204264,-1.46993696,,,1,,
PDCE,"Pont du Cens",,47.24860646,-1.57731488,,,1,,
PDEA,"Porteurs d'Eau",,47.27151222,-1.59765073,,,1,,
PDOU,"Porte Douillard",,47.28949512,-1.51849354,,,1,,
PDPI,"Pomme de Pin",,47.26708762,-1.59534026,,,1,,
PDUC,"Prairie au Duc",,47.20303211,-1.56935604,,,1,,
PEDR,"Perdriaux",,47.16125428,-1.48575767,,,1,,
PEGE,"Pégers",,47.13758868,-1.47153044,,,1,,
PELO,"Pelousière",,47.20775876,-1.64702227,,,1,,
PEON,"Perron",,47.22447457,-1.60093397,,,1,,
PERR,"Perray",,47.24753061,-1.51295490,,,1,,
PETR,"Pétrels",,47.25430074,-1.50709295,,,1,,
PFNA,"Purfina",,47.19457500,-1.63494095,,,1,,
PGRI,"Pagerie",,47.17872222,-1.65318427,,,1,,
PGTI,"Plinguetière",,47.13362595,-1.61313247,,,1,,
PHTR,"Parc Chantrerie",,47.28617242,-1.52090098,,,1,,
PHVE,"Pré Hervé",,47.24412862,-1.51773567,,,1,,
PIAO,"Piano'cktail",,47.17483933,-1.60639797,,,1,,
PIBL,"Pierre Blanche",,47.17205368,-1.62719445,,,1,,
PIPA,"Pipay",,47.22554605,-1.53741810,,,1,,
PIRM,"Pirmil",,47.19609738,-1.54268626,,,1,,
PISE,"Pin Sec",,47.24375599,-1.51810558,,,1,,
PJOU,"Point du Jour",,47.26495622,-1.44355980,,,1,,
PLAC,"Placis",,47.19964834,-1.52008230,,,1,,
PLAE,"Planche Etienne",,47.16590439,-1.62528649,,,1,,
PLBL,"Port la Blanche",,47.27163335,-1.51667583,,,1,,
PLCL,"Polyclinique",,47.22798592,-1.61150584,,,1,,
PLES,"Plessis",,47.30114993,-1.55230174,,,1,,
PLGU,"Pouliguen",,47.23939917,-1.54301058,,,1,,
PLNA,"Port launay",,47.20968794,-1.74630488,,,1,,
PLOR,"Ploreau",,47.30314874,-1.55178525,,,1,,
PLPC,"Place des Pêcheurs",,47.13641378,-1.66798594,,,1,,
PLSS,"Plessis",,47.26035939,-1.66007149,,,1,,
PLTI,"Platière",,47.19448617,-1.56106845,,,1,,
PMAR,"Pont Marchand",,47.26062490,-1.63151308,,,1,,
PMEU,"Port aux Meules",,47.16542495,-1.49305446,,,1,,
PMTR,"Pont de la Métairie",,47.26234953,-1.44615364,,,1,,
PMVE,"Prairie de Mauves",,47.22003180,-1.51652833,,,1,,
PNLU,"Pinier",,47.25271209,-1.48171431,,,1,,
PNPI,"Pont Pilet",,47.33947182,-1.57231822,,,1,,
PNRZ,"Pinier",,47.18267121,-1.54554442,,,1,,
PNTI,"Plantiveau",,47.24659073,-1.51143236,,,1,,
POIT,"Poitou",,47.22406831,-1.56520707,,,1,,
POLE,"Poulenc",,47.25549776,-1.58125891,,,1,,
POMM,"Pommeraie",,47.14573609,-1.69508811,,,1,,
PONT,"Ponterau",,47.30641291,-1.37883711,,,1,,
POON,"Potiron",,47.27039478,-1.51870365,,,1,,
POST,"Poste",,47.29523442,-1.55412164,,,1,,
POTT,"Pottier",,47.17763302,-1.62734333,,,1,,
POYA,"Poyaux",,47.16658699,-1.53103977,,,1,,
PPDO,"Pompidou",,47.20918997,-1.52830369,,,1,,
PPFA,"Petit Port",,47.24370612,-1.55711745,,,1,,
PPLI,"Peupliers",,47.19956367,-1.49562949,,,1,,
PPOU,"Pré Poulain",,47.27248637,-1.44462168,,,1,,
PPSI,"Petit Plessis",,47.30185314,-1.38619840,,,1,,
PPTR,"Papotière",,47.24014265,-1.49681824,,,1,,
PPUN,"Petit Port-Facultés",,47.24313250,-1.54742102,,,1,,
PRCE,"Procé",,47.22252526,-1.58148812,,,1,,
PRDI,"Praudière",,47.25685006,-1.58387156,,,1,,
PREU,"Preux",,47.22119804,-1.61245913,,,1,,
PRFO,"Profondine",,47.19610763,-1.48851103,,,1,,
PRGE,"Portail Rouge",,47.24392237,-1.50502440,,,1,,
PRHE,"Petit Rocher",,47.24055373,-1.47899478,,,1,,
PRIM,"Primevères",,47.22487620,-1.67288995,,,1,,
PRMI,"Pyramide",,47.20803366,-1.49279982,,,1,,
PRNE,"Perrines",,47.22753768,-1.51561466,,,1,,
PROU,"Pont-Rousseau-Martyrs",,47.19185437,-1.54832452,,,1,,
PRRI,"Perrières",,47.30944669,-1.55197896,,,1,,
PRSS,"Pressoir",,47.12355503,-1.63878365,,,1,,
PRTE,"Portereau",,47.16829334,-1.50157978,,,1,,
PRUT,"Proutière",,47.19783496,-1.78068777,,,1,,
PRZE,"Porte de Rezé",,47.15724765,-1.54092876,,,1,,
PSAU,"Porte de Sautron",,47.25079554,-1.61874600,,,1,,
PSCE,"Plaisance",,47.24012139,-1.59110919,,,1,,
PSEV,"Parc de la Sèvre",,47.16435240,-1.47924396,,,1,,
PSIN,"Pasteur",,47.20098683,-1.67863326,,,1,,
PSME,"Place St Méen",,47.31913107,-1.34727709,,,1,,
PSOR,"Prières",,47.15035390,-1.52630305,,,1,,
PSPO,"Parc des Sports",,47.25987483,-1.45021176,,,1,,
PSSN,"Poisson",,47.19711969,-1.64993055,,,1,,
PSUD,"Pôle Sud",,47.18880328,-1.46975714,,,1,,
PTBO,"Petit Bois",,47.18550229,-1.67839662,,,1,,
PTCH,"Patache",,47.27121209,-1.61959538,,,1,,
PTEC,"Polytech'",,47.28073259,-1.51389100,,,1,,
PTGO,"Poitou",,47.20980829,-1.46913668,,,1,,
PTIS,"Plessis Tison",,47.23657256,-1.53358852,,,1,,
PTLA,"CES Petite Lande",,47.17794233,-1.54956064,,,1,,
PTNE,"Platanes",,47.24529951,-1.52500171,,,1,,
PTON,"Portillon",,47.14928857,-1.46906172,,,1,,
PTPS,"Printemps",,47.18859741,-1.50039329,,,1,,
PTQQ,"Portricq",,47.26524864,-1.52177247,,,1,,
PTRE,"Portereau",,47.19211569,-1.47580611,,,1,,
PTRI,"Patouillerie",,47.24523319,-1.58116812,,,1,,
PTSC,"Petits Champs Blancs",,47.28112281,-1.42008825,,,1,,
PTUR,"Pâtures",,47.30452472,-1.55638729,,,1,,
PTVI,"Pâtis Viaud",,47.13859320,-1.45747884,,,1,,
PTYY,"Planty",,47.17526907,-1.49494731,,,1,,
PUCH,"Pluchets",,47.21867087,-1.65444503,,,1,,
PVIL,"Petit Village",,47.21700643,-1.65048707,,,1,,
PVLO,"Pavillon",,47.14358417,-1.67934761,,,1,,
PVTO,"Porte de Vertou",,47.18112627,-1.50567017,,,1,,
PXCE,"Port aux Cerises",,47.31187743,-1.54129709,,,1,,
QANT,"Quai des Antilles",,47.20373747,-1.56980401,,,1,,
QBNA,"Quai Brunais",,47.19643837,-1.66957006,,,1,,
QSCO,"Quai Surcouf",,47.19490237,-1.57801242,,,1,,
QTNE,"Quintaine",,47.21669222,-1.46248846,,,1,,
RABI,"Rabine",,47.26138358,-1.64347712,,,1,,
RAGO,"Ragon",,47.16511879,-1.54255518,,,1,,
RAVA,"Ravardière",,47.18379560,-1.66532092,,,1,,
RAZA,"Ranzay",,47.25333138,-1.53070103,,,1,,
RBAL,"Roche Ballue",,47.17953387,-1.65575479,,,1,,
RBHI,"René Bouhier",,47.20998193,-1.57158166,,,1,,
RBLD,"Rabillard",,47.19564256,-1.64836691,,,1,,
RBNI,"Robinière",,47.16373212,-1.53558769,,,1,,
RBRN,"René Bernier",,47.19385698,-1.49931691,,,1,,
RCAS,"René Cassin",,47.26475530,-1.57386649,,,1,,
RCER,"Rocher",,47.21315293,-1.63949256,,,1,,
RCPE,"Route de la Chapelle",,47.25485941,-1.57618523,,,1,,
RCUU,"Rochu",,47.21510115,-1.66647291,,,1,,
RDFY,"Raoul Dufy",,47.22262841,-1.59960820,,,1,,
RDGO,"Radigois",,47.19305249,-1.51802149,,,1,,
RDIE,"Rouaudière",,47.29420653,-1.58449495,,,1,,
RDMV,"Rue de Mauves",,47.27143322,-1.43277102,,,1,,
RDNT,"Rue de Nantes",,47.15134630,-1.53429626,,,1,,
REDR,"Redras",,47.16475404,-1.50238259,,,1,,
REFR,"Réfractaires",,47.30275197,-1.54751948,,,1,,
RETA,"Retas",,47.15485606,-1.53705860,,,1,,
REYN,"Reynière",,47.25612645,-1.57865918,,,1,,
RGNI,"Reigniers",,47.13722374,-1.46622500,,,1,,
RIND,"Rue d'Indre",,47.20419564,-1.66407105,,,1,,
RLEA,"Rouleaux",,47.20009287,-1.46606724,,,1,,
RLON,"Rennes - Longchamp",,47.23874527,-1.57064205,,,1,,
RMAU,"Roche Maurice",,47.19632339,-1.61815596,,,1,,
RMNE,"Romanet",,47.21149099,-1.60923120,,,1,,
RNAN,"Renan",,47.21632423,-1.61354029,,,1,,
RNDR,"Renardières",,47.14896443,-1.60185280,,,1,,
RNIE,"Rinière",,47.12905932,-1.63589246,,,1,,
RNLT,"Renault",,47.26341561,-1.49570894,,,1,,
RNRE,"Renaudières",,47.29947868,-1.50809314,,,1,,
RNTI,"Reinetière",,47.25688956,-1.49153714,,,1,,
ROCA,"Rocade",,47.16318351,-1.47374654,,,1,,
ROET,"Rouet",,47.14859959,-1.52221594,,,1,,
RPAR,"Rond-Point de Paris",,47.23404481,-1.53644693,,,1,,
RPBL,"République",,47.20470864,-1.55441200,,,1,,
RPCH,"Repos de Chasse",,47.21665513,-1.59965783,,,1,,
RPSI,"Ripossière",,47.19212288,-1.53499900,,,1,,
RQIO,"Trentemoult Roquios",,47.19547324,-1.58241481,,,1,,
RREN,"Rond-Point de Rennes",,47.23303495,-1.56639015,,,1,,
RROL,"Romain Rolland",,47.20661689,-1.60953263,,,1,,
RSCO,"Robert Scott",,47.18690928,-1.45892159,,,1,,
RSLI,"Rousselière",,47.17565873,-1.51835430,,,1,,
RSNB,"Rosenberg",,47.23568862,-1.65981468,,,1,,
RSRA,"Roseraie",,47.26079610,-1.52833053,,,1,,
RTSC,"Recteur Schmitt",,47.25312047,-1.55304100,,,1,,
RUET,"Ruette",,47.23355399,-1.51075885,,,1,,
RVAN,"Rond-Point de Vannes",,47.22957259,-1.57288090,,,1,,
RVDI,"Rivaudière",,47.22710048,-1.65031394,,,1,,
RVER,"Roches Vertes",,47.18490744,-1.52456891,,,1,,
RZEE,"Razée",,47.21495313,-1.46606598,,,1,,
SADU,"Santos Dumont",,47.25941297,-1.56672852,,,1,,
SAGL,"St-Aignan de Grand Lieu",,47.12306706,-1.63465649,,,1,,
SAIG,"St-Aignan",,47.20813199,-1.57831944,,,1,,
SALE,"Salentine",,47.24856478,-1.61024769,,,1,,
SAOR,"Sables d'Or",,47.26509240,-1.45587347,,,1,,
SAPI,"Saupin",,47.18401164,-1.47575740,,,1,,
SATR,"Sautron",,47.26538705,-1.68386822,,,1,,
SAVA,"Savarières",,47.20857489,-1.49006308,,,1,,
SBAI,"St-Blaise",,47.16721273,-1.46901489,,,1,,
SBLL,"Sébilleau",,47.20484325,-1.53169021,,,1,,
SBSA,"St-Jean-Baptiste de la Salle",,47.23341576,-1.55992532,,,1,,
SCHW,"Schweitzer",,47.29469355,-1.49490801,,,1,,
SCLE,"St-Clément",,47.22188441,-1.54720031,,,1,,
SDAV,"Square Davais",,47.21154662,-1.55728847,,,1,,
SDON,"St-Donatien",,47.22894363,-1.54083745,,,1,,
SECH,"Schoelcher",,47.22040335,-1.62773627,,,1,,
SEIL,"Seil",,47.19424557,-1.57082900,,,1,,
SERC,"Sercel",,47.26686045,-1.48960508,,,1,,
SEVR,"Sèvres",,47.18676476,-1.52826996,,,1,,
SFEL,"St-Félix",,47.23120872,-1.55647209,,,1,,
SFRA,"San-Francisco",,47.21769575,-1.51636009,,,1,,
SGRA,"Sageran",,47.21963113,-1.57122899,,,1,,
SHMD,"St-Hermeland",,47.14426175,-1.69603334,,,1,,
SILL,"Sillon de Bretagne",,47.24555982,-1.60857095,,,1,,
SINI,"Sinière",,47.22578442,-1.67785029,,,1,,
SJAC,"St-Jacques 2",,47.19608182,-1.53779601,,,1,,
SJBO,"St-Jean-de-Boiseau",,47.19585207,-1.72489753,,,1,,
SJEA,"St-Jean",,47.19178452,-1.52361161,,,1,,
SJPO,"St-Joseph de Porterie",,47.26793641,-1.51680624,,,1,,
SLAU,"St-Laurent",,47.22306882,-1.59726083,,,1,,
SLCE,"Ste-Luce",,47.25034785,-1.48511670,,,1,,
SLDA,"Solidarité",,47.21718879,-1.58744262,,,1,,
SLEN,"Suzanne Lenglen",,47.22905717,-1.58804889,,,1,,
SLGE,"Salorges",,47.20473102,-1.57503087,,,1,,
SLVI,"St-Léger-les-Vignes",,47.13640898,-1.72976387,,,1,,
SMAR,"St-Martin",,47.21335971,-1.69317777,,,1,,
SMHI,"St-Mihiel",,47.22356660,-1.55340397,,,1,,
SMIC,"St-Michel",,47.22414752,-1.64454074,,,1,,
SNIC,"St-Nicolas",,47.21550914,-1.56049823,,,1,,
SNUC,"Stade SNUC",,47.22804610,-1.58070255,,,1,,
SOCH,"Souchais",,47.30765337,-1.48974686,,,1,,
SOEC,"Souchais École",,47.30367160,-1.49846486,,,1,,
SORI,"Sorin",,47.19525129,-1.56773109,,,1,,
SOUI,"Souillarderie",,47.23841806,-1.51613393,,,1,,
SOWE,"Soweto",,47.23327207,-1.65156746,,,1,,
SPHI,"Saphirs",,47.20494966,-1.65791541,,,1,,
SPIN,"Saupin",,47.21437844,-1.53740257,,,1,,
SPLO,"Ste-Philomène",,47.21189407,-1.72466122,,,1,,
SPRU,"Sully Prudhomme",,47.23624444,-1.59651086,,,1,,
SPSA,"St-Paul - Salengro",,47.18534886,-1.54626705,,,1,,
SRDI,"Sarradin",,47.22047550,-1.57023306,,,1,,
SRNI,"Les Sorinières",,47.15918543,-1.51809294,,,1,,
SRTR,"Sartre",,47.21429811,-1.64023862,,,1,,
SSEB,"St-Sébastien-sur-Loire",,47.20751172,-1.50307119,,,1,,
SSTA,"St-Stanislas",,47.22222572,-1.55657191,,,1,,
STBS,"Stade",,47.19131565,-1.70790343,,,1,,
STHR,"Alexandre Vincent-Ste-Thérèse",,47.23266376,-1.57733827,,,1,,
STPI,"St-Pierre",,47.21809144,-1.55177645,,,1,,
STXU,"St-Exupéry",,47.15280587,-1.59487324,,,1,,
SUCO,"Surcouf",,47.26884475,-1.44581947,,,1,,
SVAU,"Savaudière",,47.28925918,-1.51477024,,,1,,
SVDI,"Solvardière",,47.21810211,-1.64224002,,,1,,
SVIN,"Stévin",,47.25997230,-1.63477224,,,1,,
SVNN,"Savonnières",,47.19748509,-1.66277648,,,1,,
SYRM,"Syrma",,47.27704383,-1.47035183,,,1,,
TADI,"Taillandier",,47.21434260,-1.71651857,,,1,,
TAID,"Toutes Aides",,47.22646431,-1.52347007,,,1,,
TBAU,"Thébaudières",,47.31056591,-1.35886767,,,1,,
TBCH,"Trébuchet",,47.22032000,-1.54658438,,,1,,
TBER,"Tristan Bernard",,47.20580571,-1.46488733,,,1,,
TBLY,"Tabarly",,47.19552476,-1.54898736,,,1,,
TCHE,"Trois Chênes",,47.25818959,-1.47403605,,,1,,
TDGA,"Tredégar",,47.25468841,-1.60501136,,,1,,
TEBS,"Tertre",,47.19668985,-1.74452027,,,1,,
TEIF,"Tour Eiffel",,47.19958731,-1.75425712,,,1,,
TENA,"Tertre",,47.21442014,-1.60786096,,,1,,
TERR,"Terray",,47.25180366,-1.52737624,,,1,,
THAT,"Théatre",,47.21571204,-1.72878494,,,1,,
THCE,"Centre de Thouaré-sur-Loire",,47.26655287,-1.44155584,,,1,,
THEB,"Thébaudières",,47.24455843,-1.60624858,,,1,,
TILL,"Tillay",,47.22878637,-1.60654038,,,1,,
TJOI,"Toutes Joies",,47.22119467,-1.57292964,,,1,,
TLDI,"Télindière",,47.19614258,-1.73707782,,,1,,
TLSA,"Talensac",,47.22157014,-1.55598217,,,1,,
TMET,"Trois Métairies",,47.17639742,-1.50163238,,,1,,
TMLI,"Tourmaline",,47.22141243,-1.63243835,,,1,,
TMOU,"Trois Moulins",,47.17812008,-1.54428975,,,1,,
TMSS,"Trémissinière",,47.23805876,-1.54430188,,,1,,
TNVA,"Terre Neuvas",,47.18589150,-1.59135787,,,1,,
TOSC,"Toscane",,47.28327006,-1.54835331,,,1,,
TOTR,"Tortière",,47.23522123,-1.54966309,,,1,,
TOUG,"Tougas",,47.19414178,-1.63966591,,,1,,
TPCH,"Terpsichore",,47.28237319,-1.50249485,,,1,,
TPOD,"Tripode",,47.20850406,-1.54067800,,,1,,
TRCA,"Tréca",,47.25016823,-1.50137284,,,1,,
TRIA,"Trianon",,47.27322232,-1.43038312,,,1,,
TRNE,"Tribunes",,47.24997983,-1.56868531,,,1,,
TROC,"Trocardière",,47.18318560,-1.57028594,,,1,,
TRQU,"Terres Quartières",,47.13473935,-1.65914894,,,1,,
TRTS,"Tarentaise",,47.27742305,-1.43411983,,,1,,
TTMO,"Trentemoult",,47.19140779,-1.58277779,,,1,,
TZEL,"Touzelles",,47.20835048,-1.46691839,,,1,,
UBRU,"Usine Brûlée",,47.19494901,-1.63192940,,,1,,
UGAZ,"Usine à gaz",,47.19462474,-1.62040900,,,1,,
UTCH,"Utrecht",,47.28314109,-1.55218221,,,1,,
UTLO,"Utrillo",,47.18233969,-1.56335465,,,1,,
VAIL,"Vaillant",,47.19962676,-1.67113033,,,1,,
VALL,"Vallée",,47.25042573,-1.57678668,,,1,,
VARI,"Vincent Auriol",,47.22180226,-1.59214384,,,1,,
VCSO,"Vaucanson",,47.21279380,-1.58134386,,,1,,
VDCE,"Val du Cens",,47.26108390,-1.66515341,,,1,,
VDLO,"Vieux Doulon",,47.23548982,-1.50402199,,,1,,
VDNI,"Ville au Denis",,47.16278170,-1.62703642,,,1,,
VDUR,"Verdure",,47.19591839,-1.65340905,,,1,,
VEAG,"Véga",,47.27966997,-1.46445133,,,1,,
VEGE,"Verger",,47.29309160,-1.49704348,,,1,,
VEIE,"Verrière",,47.27684760,-1.57051647,,,1,,
VEND,"Vendée",,47.20829389,-1.46863248,,,1,,
VEPR,"Vesprées",,47.24599130,-1.50239562,,,1,,
VERL,"Verlaine",,47.23386817,-1.59488151,,,1,,
VEXP,"Village Expo",,47.21460564,-1.61506578,,,1,,
VFOU,"Vieux Four",,47.19093184,-1.70087103,,,1,,
VGAC,"Vincent Gâche",,47.20635971,-1.54818815,,,1,,
VIAR,"Viarme-Talensac",,47.22118375,-1.56261703,,,1,,
VIER,"Viv'Erdre",,47.28563361,-1.55037822,,,1,,
VILE,"Violettes",,47.19748953,-1.50922341,,,1,,
VINE,"Villeneuve",,47.19391235,-1.51385522,,,1,,
VISO,"Vison",,47.24421766,-1.50967453,,,1,,
VIVI,"Viviers",,47.17308163,-1.48488496,,,1,,
VRIE,"Vrière",,47.28210909,-1.55607767,,,1,,
VRPD,"Vert Praud",,47.16649613,-1.54978652,,,1,,
VSCO,"Vincent Scotto",,47.25204128,-1.56632259,,,1,,
DPVT,"Vertonne",,47.18708768,-1.49434000,,,1,,
VTOU,"Vertou",,47.16885458,-1.47111255,,,1,,
VVRE,"Vièvre",,47.19806610,-1.81440774,,,1,,
WATT,"Wattignies",,47.20380749,-1.54641697,,,1,,
WDIS,"Walt Disney",,47.19488704,-1.49000938,,,1,,
XBON,"Croix Bonneau",,47.20962828,-1.59521524,,,1,,
XJAN,"Croix Jeannette",,47.17162796,-1.62386080,,,1,,
XREZ,"Croix de Rezé",,47.18005656,-1.55896111,,,1,,
XSYY,"Croisy",,47.25383423,-1.62730496,,,1,,
XTRU,"Croix Truin",,47.19136106,-1.71173896,,,1,,
ZENI,"Zénith",,47.23061352,-1.62941868,,,1,,
ZOLA,"Zola",,47.21381063,-1.58613736,,,1,,
ABCH1,"Abbé Chérel",,47.21010098,-1.65221959,,,0,ABCH,1
ABCH2,"Abbé Chérel",,47.21004765,-1.65115815,,,0,ABCH,1
ABDU1,"Abel Durand",,47.22024715,-1.60339908,,,0,ABDU,1
ABDU2,"Abel Durand",,47.22007197,-1.60325398,,,0,ABDU,1
ABOL1,"Adrienne Bolland",,47.26792208,-1.47658227,,,0,ABOL,1
ABOL2,"Adrienne Bolland",,47.26791335,-1.47684627,,,0,ABOL,1
ACHA1,"Angle Chaillou",,47.26977722,-1.57185211,,,0,ACHA,2
ACHA2,"Angle Chaillou",,47.26986259,-1.57199068,,,0,ACHA,2
ADBO1,"Audubon",,47.21401606,-1.72323592,,,0,ADBO,1
ADBO2,"Audubon",,47.21393087,-1.72309726,,,0,ADBO,1
ADE58,"Aimé Delrue",,47.20917256,-1.55024277,,,0,ADEL,2
ADEL1,"Aimé Delrue",,47.20925795,-1.55038114,,,0,ADEL,1
ADEL2,"Aimé Delrue",,47.20899731,-1.55009787,,,0,ADEL,1
ADEL3,"Aimé Delrue",,47.20926240,-1.55024930,,,0,ADEL,2
ADPI1,"Avenue des Pins",,47.25326073,-1.59670445,,,0,ADPI,1
ADPI3,"Avenue des Pins",,47.25367844,-1.59766118,,,0,ADPI,1
AECL1,"Aéroclub",,47.15926556,-1.59825258,,,0,AECL,1
AECL2,"Aéroclub",,47.15944975,-1.59813406,,,0,AECL,1
AEPO1,"D2A - Aéroport",,47.15686225,-1.59741579,,,0,AEPO,1
AEPO2,"D2A - Aéroport",,47.15695660,-1.59729067,,,0,AEPO,1
AESP1,"Aérospatiale",,47.16078877,-1.58793208,,,0,AESP,2
AESP2,"Aérospatiale",,47.16135928,-1.58704949,,,0,AESP,2
AFRA1,"Anatole France",,47.22440632,-1.57118120,,,0,AFRA,1
AFRA2,"Anatole France",,47.22367415,-1.57152434,,,0,AFRA,2
AFRA3,"Anatole France",,47.22392580,-1.57207157,,,0,AFRA,1
AGBE1,"L'Angebert",,47.14054089,-1.45576884,,,0,AGBE,2
AGBE2,"L'Angebert",,47.14072493,-1.45564987,,,0,AGBE,2
AGDR1,"Angebardière",,47.16943260,-1.50522732,,,0,AGDR,1
AGDR2,"Angebardière",,47.16951366,-1.50549728,,,0,AGDR,2
AGV98,"Angevinière",,47.24599501,-1.61164521,,,0,AGVI,1
AGVI1,"Angevinière",,47.24515933,-1.61237710,,,0,AGVI,1
AGVI2,"Angevinière",,47.24509659,-1.61157887,,,0,AGVI,1
AIBU1,"Airbus",,47.15869537,-1.59121199,,,0,AIBU,1
AIBU3,"Airbus",,47.15798559,-1.59089584,,,0,AIBU,2
AIGU1,"Aiguillon",,47.25456226,-1.49652938,,,0,AIGU,1
AIGU2,"Aiguillon",,47.25445925,-1.49691883,,,0,AIGU,1
ALCH1,"Champ de l'Alouette",,47.28282777,-1.58008630,,,0,ALCH,1
ALCH2,"Champ de l'Alouette",,47.28328595,-1.57985517,,,0,ALCH,1
ALDE1,"Allende",,47.17541044,-1.62387641,,,0,ALDE,1
ALDE2,"Allende",,47.17525341,-1.62320432,,,0,ALDE,1
ALDE3,"Allende",,47.17484872,-1.62449532,,,0,ALDE,1
ALDE4,"Allende",,47.17415264,-1.62378337,,,0,ALDE,2
ALNE1,"Aulne",,47.27693730,-1.63907702,,,0,ALNE,1
ALNE2,"Aulne",,47.27633116,-1.63837020,,,0,ALNE,1
AMCA1,"Armoricaine",,47.25859140,-1.64869359,,,0,AMCA,1
AMCA2,"Armoricaine",,47.25827307,-1.64747915,,,0,AMCA,1
AMER1,"Américains",,47.23612591,-1.56820260,,,0,AMER,1
AMER2,"Américains",,47.23577547,-1.56791254,,,0,AMER,1
AMPE1,"Ampère",,47.26076619,-1.55333274,,,0,AMPE,1
AMPE2,"Ampère",,47.26076174,-1.55346472,,,0,AMPE,1
ANGE1,"Les Anges",,47.27529402,-1.63710197,,,0,ANGE,1
ANGE2,"Les Anges",,47.27520418,-1.63709529,,,0,ANGE,1
ANTO1,"Antons",,47.25759558,-1.62268887,,,0,ANTO,1
ANTO2,"Antons",,47.25784698,-1.62323668,,,0,ANTO,1
APAV1,"Apave",,47.22565984,-1.64769437,,,0,APAV,1
APAV2,"Apave",,47.22539944,-1.64741053,,,0,APAV,1
APER1,"Ampère",,47.30218726,-1.50789091,,,0,APER,1
APER2,"Ampère",,47.30200757,-1.50787798,,,0,APER,1
APRE1,"Ambroise Paré",,47.22889385,-1.60866390,,,0,APRE,1
APRE2,"Ambroise Paré",,47.22907805,-1.60854526,,,0,APRE,1
AQUI1,"Aquitaine",,47.20988839,-1.61499496,,,0,AQUI,1
AQUI2,"Aquitaine",,47.20980261,-1.61486966,,,0,AQUI,1
ARAG1,"Arago",,47.30355064,-1.50481141,,,0,ARAG,1
ARAG2,"Arago",,47.30354624,-1.50494350,,,0,ARAG,1
ARBO1,"Arbois",,47.25863331,-1.58175331,,,0,ARBO,1
ARBO2,"Arbois",,47.25844466,-1.58200407,,,0,ARBO,1
ARCA1,"Arcades",,47.21187953,-1.65288093,,,0,ARCA,1
ARCA2,"Arcades",,47.21203639,-1.65355356,,,0,ARCA,1
ARGO1,"Argonautes",,47.30242198,-1.48182549,,,0,ARGO,1
ARGO2,"Argonautes",,47.30242198,-1.48182549,,,0,ARGO,1
ARMO1,"Armorique",,47.27148504,-1.44494779,,,0,ARMO,2
ARMO2,"Armorique",,47.27147205,-1.44534382,,,0,ARMO,2
ARO93,"Armor",,47.23107086,-1.63183278,,,0,AROR,1
AROR1,"Armor",,47.23108902,-1.63130520,,,0,AROR,1
AROR2,"Armor",,47.23117886,-1.63131186,,,0,AROR,1
AROR3,"Armor",,47.23107086,-1.63183278,,,0,AROR,1
AROR4,"Armor",,47.23106178,-1.63209657,,,0,AROR,1
ATAR1,"Antarès",,47.28171763,-1.45970027,,,0,ATAR,1
ATAR2,"Antarès",,47.28171763,-1.45970027,,,0,ATAR,1
AUCP1,"La Chapelle Aulnay",,47.30821266,-1.54314964,,,0,AUCP,1
AUCP2,"La Chapelle Aulnay",,47.30838791,-1.54329479,,,0,AUCP,1
AUCP3,"La Chapelle Aulnay",,47.30814501,-1.54248265,,,0,AUCP,1
AUFR1,"L'Aufrère",,47.16804829,-1.52507017,,,0,AUFR,2
AUGE1,"Augé",,47.19496578,-1.51736648,,,0,AUGE,1
AURR1,"Aurore",,47.26487732,-1.58088793,,,0,AURR,2
AURR2,"Aurore",,47.26539845,-1.58145537,,,0,AURR,2
AVEN1,"Aveneaux",,47.23393311,-1.62979710,,,0,AVEN,1
AVEN2,"Aveneaux",,47.23282778,-1.63050854,,,0,AVEN,1
BABI1,"Barbinière",,47.15949854,-1.48167106,,,0,BABI,1
BABI2,"Barbinière",,47.15985795,-1.48169668,,,0,BABI,1
BAGA1,"Bagatelle",,47.24336517,-1.62004803,,,0,BAGA,2
BAGA2,"Bagatelle",,47.24354938,-1.61992939,,,0,BAGA,2
BAIE3,"Babinière",,47.25925666,-1.54627740,,,0,BAIE,1
BAIR1,"Bel Air",,47.22580682,-1.55960903,,,0,BAIR,1
BAIR2,"Bel Air",,47.22542354,-1.55922414,,,0,BAIR,1
BALI1,"Balinière",,47.18626783,-1.55373215,,,0,BALI,1
BALI2,"Balinière",,47.18598939,-1.55397615,,,0,BALI,1
BALI3,"Balinière",,47.18462388,-1.55440535,,,0,BALI,1
BALI4,"Balinière",,47.18481247,-1.55415483,,,0,BALI,1
BANS1,"Bois des Anses",,47.24723416,-1.49481369,,,0,BANS,1
BANS2,"Bois des Anses",,47.24705446,-1.49480082,,,0,BANS,1
BANS3,"Bois des Anses",,47.24669068,-1.49490701,,,0,BANS,1
BANS4,"Bois des Anses",,47.24659645,-1.49503252,,,0,BANS,1
BARR1,"La Barre",,47.30844177,-1.38295034,,,0,BARR,2
BARR2,"La Barre",,47.30881395,-1.38257905,,,0,BARR,2
BAS98,"Bastille",,47.17938648,-1.59722149,,,0,BAST,2
BAS99,"Bastille",,47.17903610,-1.59693154,,,0,BAST,2
BAST1,"Bastille",,47.17903610,-1.59693154,,,0,BAST,1
BAST2,"Bastille",,47.17938648,-1.59722149,,,0,BAST,1
BATI1,"Batignolles",,47.25560851,-1.52993977,,,0,BATI,1
BATI2,"Batignolles",,47.25560851,-1.52993977,,,0,BATI,1
BAUG1,"Baugerie",,47.20349417,-1.52088809,,,0,BAUG,1
BAUG2,"Baugerie",,47.20378578,-1.52024833,,,0,BAUG,1
BAVO1,"Basse Orévière",,47.22049657,-1.65894412,,,0,BAVO,1
BAVO2,"Basse Orévière",,47.22040673,-1.65893741,,,0,BAVO,1
BBON1,"Boisbonne",,47.28686058,-1.50837641,,,0,BBON,1
BBON2,"Boisbonne",,47.28676634,-1.50850198,,,0,BBON,1
BCES1,"Bois Cesbron",,47.26104953,-1.62440007,,,0,BCES,1
BCES2,"Bois Cesbron",,47.26105406,-1.62426809,,,0,BCES,1
BCGA1,"Bd Charles Gautier",,47.22209740,-1.60723719,,,0,BCGA,1
BCGA2,"Bd Charles Gautier",,47.22201207,-1.60709869,,,0,BCGA,1
BCGA3,"Bd Charles Gautier",,47.22282066,-1.60715830,,,0,BCGA,1
BCGA4,"Bd Charles Gautier",,47.22282517,-1.60702642,,,0,BCGA,1
BCHE1,"Basse Chênaie",,47.24117164,-1.50919095,,,0,BCHE,1
BCHE2,"Basse Chênaie",,47.24147198,-1.50828681,,,0,BCHE,1
BCHE3,"Basse Chênaie",,47.24101394,-1.50851837,,,0,BCHE,1
BCHE4,"Basse Chênaie",,47.24181377,-1.50884038,,,0,BCHE,1
BCNY1,"Bas-Chantenay",,47.19818765,-1.58919452,,,0,BCNY,1
BCNY2,"Bas-Chantenay",,47.19821415,-1.58894539,,,0,BCNY,1
BCNY3,"Bas-Chantenay",,47.19834846,-1.58791127,,,0,BCNY,2
BCNY9,"Bas-Chantenay",,47.19562169,-1.58863631,,,0,BCNY,2
BCOI1,"Branchoire",,47.21787171,-1.60306550,,,0,BCOI,1
BCOI2,"Branchoire",,47.21800419,-1.60340575,,,0,BCOI,1
BCOI3,"Branchoire",,47.21861194,-1.60380745,,,0,BCOI,1
BCOI4,"Branchoire",,47.21778982,-1.60414348,,,0,BCOI,1
BCTT1,"Blanchet",,47.17166881,-1.54329386,,,0,BCTT,1
BCTT2,"Blanchet",,47.17130941,-1.54326782,,,0,BCTT,1
BDAN1,"Bd des Anglais",,47.22635718,-1.58269433,,,0,BDAN,1
BDAN2,"Bd des Anglais",,47.22642460,-1.58336035,,,0,BDAN,1
BDAN3,"Bd des Anglais",,47.22671207,-1.58285255,,,0,BDAN,1
BDAN4,"Bd des Anglais",,47.22615955,-1.58320871,,,0,BDAN,1
BDEL1,"Baudelaire",,47.23366160,-1.59301502,,,0,BDEL,1
BDEL2,"Baudelaire",,47.23394462,-1.59263911,,,0,BDEL,2
BDGL1,"Bodiguel",,47.19847811,-1.65492143,,,0,BDGL,2
BDIN1,"Bodinières",,47.20978665,-1.64307564,,,0,BDIN,1
BDIN2,"Bodinières",,47.20970592,-1.64280527,,,0,BDIN,1
BDIN3,"Bodinières",,47.21000731,-1.64190242,,,0,BDIN,1
BDIN4,"Bodinières",,47.21028138,-1.64179062,,,0,BDIN,2
BDLA1,"Bout des Landes",,47.26744242,-1.58226680,,,0,BDLA,1
BDNN1,"Bourdonnais",,47.20552845,-1.57992640,,,0,BDNN,1
BDNN2,"Bourdonnais",,47.20637294,-1.57945954,,,0,BDNN,1
BDOU1,"Bd de Doulon",,47.22469671,-1.51977291,,,0,BDOU,1
BDOU2,"Bd de Doulon",,47.22423423,-1.52013619,,,0,BDOU,1
BDOU3,"Bd de Doulon",,47.22441392,-1.52014915,,,0,BDOU,1
BDOU6,"Bd de Doulon",,47.22379382,-1.51984003,,,0,BDOU,1
BDOU7,"Bd de Doulon",,47.22406777,-1.51972757,,,0,BDOU,1
BDPA1,"Bout des Pavés",,47.25287837,-1.57617252,,,0,BDPA,1
BDPA2,"Bout des Pavés",,47.25269421,-1.57629132,,,0,BDPA,1
BDPA3,"Bout des Pavés",,47.25351623,-1.57595464,,,0,BDPA,1
BDPA4,"Bout des Pavés",,47.25395650,-1.57625143,,,0,BDPA,2
BDPA5,"Bout des Pavés",,47.25352071,-1.57582268,,,0,BDPA,1
BDPA6,"Bout des Pavés",,47.25332759,-1.57620540,,,0,BDPA,1
BDRI1,"Bourderies",,47.20663194,-1.59592025,,,0,BDRI,1
BDRI2,"Bourderies",,47.20664094,-1.59565658,,,0,BDRI,1
BDSP1,"Bd des Sports",,47.16589542,-1.46799687,,,0,BDSP,1
BDSP2,"Bd des Sports",,47.16559974,-1.46876821,,,0,BDSP,1
BEDR1,"Bel Endroit",,47.15330444,-1.63544591,,,0,BEDR,1
BEDR2,"Bel Endroit",,47.15470661,-1.63396536,,,0,BEDR,1
BEGE1,"Beauger",,47.23423318,-1.55305581,,,0,BEGE,2
BEGE2,"Beauger",,47.23430363,-1.55283614,,,0,BEGE,2
BEHI1,"Béhinière",,47.19776970,-1.79257748,,,0,BEHI,1
BEHI2,"Béhinière",,47.19701789,-1.79093353,,,0,BEHI,1
BEIL1,"Beillevaire",,47.24956252,-1.60741126,,,0,BEIL,1
BEIL2,"Beillevaire",,47.24947719,-1.60727269,,,0,BEIL,1
BELE1,"Bêle",,47.26472488,-1.51048865,,,0,DPBL,1
BELE2,"Bêle",,47.26490018,-1.51063358,,,0,DPBL,1
BEMZ1,"Belges - Montbazon",,47.23461282,-1.54098400,,,0,BEMZ,1
BEMZ2,"Belges - Montbazon",,47.23445975,-1.54017950,,,0,BEMZ,1
BEMZ3,"Belges - Montbazon",,47.23596495,-1.54094980,,,0,BEMZ,1
BEMZ4,"Belges - Montbazon",,47.23560113,-1.54105566,,,0,BEMZ,1
BENA1,"Beaulieu",,47.20411813,-1.53718842,,,0,BENA,1
BENA2,"Beaulieu",,47.20394287,-1.53704358,,,0,BENA,1
BENA3,"Beaulieu",,47.20347912,-1.53476335,,,0,BENA,1
BENA4,"Beaulieu",,47.20368539,-1.53398533,,,0,BENA,1
BENA5,"Beaulieu",,47.20384859,-1.53716891,,,0,BENA,2
BEOC1,"Belloc",,47.20374088,-1.61460707,,,0,BEOC,1
BEOC2,"Belloc",,47.20302214,-1.61455400,,,0,BEOC,1
BESS1,"Bessonneau",,47.21479930,-1.71377698,,,0,BESS,1
BESS2,"Bessonneau",,47.21462890,-1.71349968,,,0,BESS,1
BETO1,"Belle Etoile",,47.28062157,-1.45194666,,,0,BETO,1
BETO2,"Belle Etoile",,47.28018099,-1.45165075,,,0,BETO,1
BEVA1,"Beauvaiserie",,47.13625604,-1.65437802,,,0,BEVA,2
BEVA2,"Beauvaiserie",,47.13617533,-1.65410801,,,0,BEVA,2
BGAR1,"Bonne Garde",,47.19702208,-1.53125706,,,0,BGAR,1
BGAR2,"Bonne Garde",,47.19675253,-1.53123758,,,0,BGAR,1
BGAR3,"Bonne Garde",,47.19683796,-1.53137589,,,0,BGAR,2
BGCY1,"Beaugency",,47.20326499,-1.48994769,,,0,BGCY,1
BGCY2,"Beaugency",,47.20379533,-1.49024992,,,0,BGCY,1
BGLA1,"Basse-Goulaine",,47.21124312,-1.46659534,,,0,BGLA,2
BGLA2,"Basse-Goulaine",,47.21114892,-1.46672081,,,0,BGLA,2
BGLA3,"Basse-Goulaine",,47.21085043,-1.46484923,,,0,BGLA,1
BGLA4,"Basse-Goulaine",,47.21067943,-1.46457274,,,0,BGLA,1
BGLA5,"Basse-Goulaine",,47.21054172,-1.46601681,,,0,BGLA,1
BGLA6,"Basse-Goulaine",,47.21036202,-1.46600404,,,0,BGLA,1
BGNN1,"Bourgonnière",,47.20665817,-1.65539946,,,0,BGNN,1
BGNN2,"Bourgonnière",,47.20656376,-1.65552459,,,0,BGNN,1
BGOG1,"Bourgogne",,47.24658562,-1.58907096,,,0,BGOG,1
BGOG2,"Bourgogne",,47.24630711,-1.58931505,,,0,BGOG,1
BGRI1,"Bougrière",,47.25511460,-1.47170041,,,0,BGRI,1
BGRI2,"Bougrière",,47.25501604,-1.47195795,,,0,BGRI,1
BGSH1,"Bergerie",,47.23794964,-1.62824352,,,0,BGSH,2
BGSH2,"Bergerie",,47.23712293,-1.62871121,,,0,BGSH,2
BGTT1,"Bergeronnettes",,47.23959521,-1.60125384,,,0,BGTT,2
BGTT2,"Bergeronnettes",,47.23935271,-1.60044248,,,0,BGTT,2
BGUT1,"Louis Breguet",,47.27205303,-1.46602672,,,0,BGUT,1
BGUT2,"Louis Breguet",,47.27205303,-1.46602672,,,0,BGUT,1
BGVI1,"Bougainville",,47.19894579,-1.58359414,,,0,BGVI,2
BGVI2,"Bougainville",,47.19885595,-1.58358756,,,0,BGVI,2
BHAR1,"Bois Hardy",,47.19827606,-1.60059220,,,0,BHAR,1
BHAR2,"Bois Hardy",,47.19811439,-1.60005172,,,0,BHAR,1
BHLR1,"Basse Hillière",,47.28666678,-1.42683097,,,0,BHLR,2
BIAN1,"Aristide Briand",,47.29640065,-1.49503045,,,0,BIAN,1
BIAN2,"Aristide Briand",,47.29631080,-1.49502400,,,0,BIAN,1
BIEE1,"Belle Île",,47.22439959,-1.73275085,,,0,BIEE,2
BIEE2,"Belle Île",,47.22405887,-1.73219604,,,0,BIEE,1
BIGN1,"Bignons",,47.19972366,-1.49352665,,,0,BIGN,1
BIGN2,"Bignons",,47.19981789,-1.49340125,,,0,BIGN,2
BIGN3,"Bignons",,47.19975433,-1.49260384,,,0,BIGN,2
BILE1,"Basse Ile",,47.19606771,-1.56224075,,,0,BILE,2
BILE2,"Basse Ile",,47.19567263,-1.56326908,,,0,BILE,1
BIND1,"Basse Indre",,47.19786018,-1.67271604,,,0,BIND,1
BIND2,"Basse Indre",,47.19761360,-1.67203679,,,0,BIND,1
BIND3,"Basse Indre",,47.19766674,-1.67309800,,,0,BIND,1
BIOT1,"Bigeottière",,47.25599275,-1.61952741,,,0,BIOT,1
BIOT2,"Bigeottière",,47.25591197,-1.61925685,,,0,BIOT,1
BJLI1,"Bois Jaulin",,47.17757104,-1.63698208,,,0,BJLI,1
BJLI2,"Bois Jaulin",,47.17757559,-1.63685031,,,0,BJLI,1
BJO59,"Beaujoire",,47.25895796,-1.52674242,,,0,BJOI,1
BJOI1,"Beaujoire",,47.25884014,-1.52488181,,,0,BJOI,1
BJOI2,"Beaujoire",,47.25877238,-1.52421546,,,0,BJOI,1
BJOI6,"Beaujoire",,47.25955152,-1.52784367,,,0,BJOI,1
BJOI7,"Beaujoire",,47.25919213,-1.52781769,,,0,BJOI,1
BLAV1,"Balavoine",,47.30648713,-1.55427932,,,0,BLAV,1
BLAV2,"Balavoine",,47.30628964,-1.55479458,,,0,BLAV,1
BLCH1,"Blancho",,47.21355413,-1.73377668,,,0,BLCH,1
BLCH2,"Blancho",,47.21325202,-1.73467907,,,0,BLCH,1
BLDR1,"Boulodrome",,47.25763488,-1.51513767,,,0,BLDR,1
BLDR2,"Boulodrome",,47.25848316,-1.51400818,,,0,BLDR,1
BLEM1,"Belem",,47.26563709,-1.45300144,,,0,BLEM,2
BLEM2,"Belem",,47.26545739,-1.45298870,,,0,BLEM,2
BLGO1,"Berligout",,47.21567654,-1.67841379,,,0,BLGO,1
BLGO2,"Berligout",,47.21576179,-1.67855238,,,0,BLGO,1
BLL98,"Bellestre",,47.14846357,-1.69436915,,,0,BLL9,1
BLLE1,"Bellestre",,47.14793376,-1.69406522,,,0,BLLE,1
BLLE2,"Bellestre",,47.14840602,-1.69344058,,,0,BLLE,1
BLNO1,"Bois de La Noé",,47.14187393,-1.67156247,,,0,BLNO,2
BLNO2,"Bois de La Noé",,47.14178867,-1.67142407,,,0,BLNO,2
BLOR1,"Blordière",,47.17991242,-1.53385179,,,0,BLOR,1
BLOR2,"Blordière",,47.18000227,-1.53385829,,,0,BLOR,1
BLSL1,"Bellevue",,47.23541838,-1.47360365,,,0,BLSL,2
BLUA1,"Bélouga",,47.16570767,-1.58367021,,,0,BLUA,1
BLUA2,"Bélouga",,47.16580200,-1.58354505,,,0,BLUA,2
BLVU1,"Mendès France - Bellevue",,47.20852569,-1.61165603,,,0,BLVU,1
BLVU2,"Mendès France - Bellevue",,47.20889862,-1.61128702,,,0,BLVU,1
BLVU3,"Mendès France - Bellevue",,47.20879522,-1.61167592,,,0,BLVU,1
BLVU4,"Mendès France - Bellevue",,47.20902927,-1.61167997,,,0,BLVU,1
BLVU5,"Mendès France - Bellevue",,47.20871893,-1.61127376,,,0,BLVU,1
BLVU6,"Mendès France - Bellevue",,47.20848715,-1.61120379,,,0,BLVU,1
BLVU7,"Mendès France - Bellevue",,47.20814825,-1.61215687,,,0,BLVU,2
BLZZ1,"Berlioz",,47.23970226,-1.57163772,,,0,BLZZ,1
BLZZ3,"Berlioz",,47.23961689,-1.57149923,,,0,BLZZ,1
BNCH1,"Blanchetière",,47.28986239,-1.55584836,,,0,BNCH,1
BNCH2,"Blanchetière",,47.28967380,-1.55609936,,,0,BNCH,1
BNDA1,"Brindais",,47.13906844,-1.71821651,,,0,BNDA,2
BNDA2,"Brindais",,47.13897860,-1.71820971,,,0,BNDA,2
BNET1,"Bignonnet",,47.17553725,-1.46511578,,,0,BNET,1
BNET2,"Bignonnet",,47.17553725,-1.46511578,,,0,BNET,1
BNIE1,"Bournière",,47.25439588,-1.45524697,,,0,BNIE,2
BNLU1,"Bénélux",,47.25411511,-1.49914288,,,0,BNLU,1
BNLU2,"Bénélux",,47.25402527,-1.49913644,,,0,BNLU,1
BNNO1,"Bernanos",,47.20648589,-1.61335590,,,0,BNNO,1
BNNO2,"Bernanos",,47.20620280,-1.61373151,,,0,BNNO,1
BNON1,"Bignon",,47.24934349,-1.59800357,,,0,BNON,1
BNON2,"Bignon",,47.24908296,-1.59771985,,,0,BNON,1
BNTA1,"BN",,47.18431325,-1.49651937,,,0,BNTA,1
BNTA2,"BN",,47.18467703,-1.49641331,,,0,BNTA,1
BNVI1,"Bonneville",,47.24392489,-1.53644837,,,0,BNVI,1
BNVI2,"Bonneville",,47.24389028,-1.53640618,,,0,BNVI,1
BOCE1,"Centre de Bouguenais",,47.17926087,-1.62191548,,,0,BOCE,2
BOCE2,"Centre de Bouguenais",,47.17931447,-1.62297628,,,0,BOCE,2
BODO1,"Bourdonnières",,47.18718746,-1.52103414,,,0,BODO,1
BODO2,"Bourdonnières",,47.18756010,-1.52066465,,,0,BODO,1
BODO3,"Bourdonnières",,47.18643777,-1.52190491,,,0,BODO,1
BODO4,"Bourdonnières",,47.18642894,-1.52216850,,,0,BODO,1
BOFA1,"Bouffay",,47.21460870,-1.55195955,,,0,BOFA,1
BOFA2,"Bouffay",,47.21449215,-1.55274419,,,0,BOFA,1
BOGE1,"Bourgeonnière",,47.25324376,-1.56006086,,,0,BOGE,1
BOGE2,"Bourgeonnière",,47.25317174,-1.55952649,,,0,BOGE,1
BOGE3,"Bourgeonnière",,47.25303285,-1.56097146,,,0,BOGE,2
BOGE4,"Bourgeonnière",,47.25293409,-1.56122882,,,0,BOGE,2
BOLL1,"Bois Tillac",,47.20023523,-1.77148846,,,0,BOLL,1
BOLL2,"Bois Tillac",,47.20024463,-1.77122484,,,0,BOLL,1
BOND1,"Bonde",,47.22262724,-1.55188141,,,0,BOND,1
BOND2,"Bonde",,47.22261834,-1.55214517,,,0,BOND,1
BORL1,"Bourrelière",,47.15793215,-1.49898871,,,0,BORL,2
BORL2,"Bourrelière",,47.15831350,-1.49835581,,,0,BORL,2
BOSI1,"Boissière",,47.25529800,-1.56589892,,,0,BOSI,1
BOSI2,"Boissière",,47.25493863,-1.56587269,,,0,BOSI,1
BOSI3,"Boissière",,47.25512278,-1.56575384,,,0,BOSI,2
BOSI4,"Boissière",,47.25494309,-1.56574073,,,0,BOSI,1
BOTI1,"Boutière",,47.15796666,-1.46809386,,,0,BOTI,1
BOTI2,"Boutière",,47.15724784,-1.46804280,,,0,BOTI,1
BOUE1,"Bio Ouest Laënnec",,47.23270638,-1.64187191,,,0,BOUE,2
BOUE2,"Bio Ouest Laënnec",,47.23270183,-1.64200381,,,0,BOUE,2
BOVR1,"Bouvre",,47.17805474,-1.61244717,,,0,BOVR,1
BOVR2,"Bouvre",,47.17821183,-1.61311926,,,0,BOVR,1
BPTY1,"Boulay Paty",,47.22881389,-1.57665988,,,0,BPTY,1
BPTY2,"Boulay Paty",,47.22905625,-1.57482650,,,0,BPTY,2
BRAG1,"Bois Raguenet",,47.26664252,-1.60046790,,,0,BRAG,1
BRAG2,"Bois Raguenet",,47.26682671,-1.60034915,,,0,BRAG,1
BRBI1,"Bois Robillard",,47.23514550,-1.51973294,,,0,BRBI,1
BRBI2,"Bois Robillard",,47.23568017,-1.51990372,,,0,BRBI,1
BRCH1,"Bréchetière",,47.28477709,-1.50332935,,,0,BRCH,1
BRCH2,"Bréchetière",,47.28467406,-1.50371901,,,0,BRCH,1
BRDI1,"Briandière",,47.19055221,-1.69370693,,,0,BRDI,1
BRDI2,"Briandière",,47.18970915,-1.69205782,,,0,BRDI,1
BRET1,"Bretonnière",,47.16651436,-1.46289052,,,0,BRET,1
BRET2,"Bretonnière",,47.16633900,-1.46274602,,,0,BRET,1
BRGA1,"Beauregard",,47.21076342,-1.65649887,,,0,BRGA,2
BRGA2,"Beauregard",,47.21002642,-1.65697260,,,0,BRGA,1
BRIN1,"Brains",,47.17075177,-1.71889870,,,0,BRIN,1
BRIN2,"Brains",,47.17085089,-1.71864202,,,0,BRIN,1
BRLA1,"Brouillard",,47.27395885,-1.51446158,,,0,BRLA,1
BRLA2,"Brouillard",,47.27313261,-1.51493135,,,0,BRLA,1
BRLN1,"Berlin",,47.21648924,-1.53623353,,,0,BRLN,1
BRLN2,"Berlin",,47.21650254,-1.53583793,,,0,BRLN,1
BRNI1,"Baronnière",,47.25959399,-1.60378548,,,0,BRNI,1
BRNI2,"Baronnière",,47.25949964,-1.60391082,,,0,BRNI,1
BROS1,"Brossais",,47.16258113,-1.58555429,,,0,BROS,2
BROS2,"Brossais",,47.16258113,-1.58555429,,,0,BROS,2
BRTA1,"Bretagne",,47.21735540,-1.55863661,,,0,BRTA,1
BRTA2,"Bretagne",,47.21709924,-1.55822138,,,0,BRTA,1
BRUN1,"Bruneau",,47.22831085,-1.56173506,,,0,BRUN,1
BRUN2,"Bruneau",,47.22797071,-1.56140617,,,0,BRUN,1
BRVI1,"Boris Vian",,47.15337928,-1.68259089,,,0,BRVI,1
BRVI2,"Boris Vian",,47.15316280,-1.68363101,,,0,BRVI,1
BSAN1,"Bobby Sands",,47.22998763,-1.65277709,,,0,BSAN,1
BSAN2,"Bobby Sands",,47.22988866,-1.65303418,,,0,BSAN,1
BSE10,"Beauséjour",,47.23795164,-1.58605673,,,0,BSEJ,1
BSE11,"Beauséjour",,47.23823014,-1.58581267,,,0,BSEJ,1
BSEJ1,"Beauséjour",,47.23827061,-1.58727035,,,0,BSEJ,1
BSEJ2,"Beauséjour",,47.23801455,-1.58685482,,,0,BSEJ,1
BSEJ3,"Beauséjour",,47.23792919,-1.58671631,,,0,BSEJ,1
BSEJ4,"Beauséjour",,47.23809541,-1.58712525,,,0,BSEJ,1
BSEJ5,"Beauséjour",,47.23826612,-1.58740226,,,0,BSEJ,1
BSEJ6,"Beauséjour",,47.23827510,-1.58713843,,,0,BSEJ,1
BSEJ7,"Beauséjour",,47.23837392,-1.58688119,,,0,BSEJ,1
BSEJ9,"Beauséjour",,47.23793368,-1.58658440,,,0,BSEJ,1
BSIS1,"Bossis",,47.21258119,-1.71281589,,,0,BSIS,1
BSIS2,"Bossis",,47.21251451,-1.71214987,,,0,BSIS,1
BSNI1,"Bussonnière",,47.26902545,-1.44305373,,,0,BSNI,1
BSNI2,"Bussonnière",,47.26972263,-1.44376460,,,0,BSNI,1
BSOL1,"Beau Soleil",,47.17781880,-1.64545499,,,0,BSOL,2
BSOL2,"Beau Soleil",,47.17766190,-1.64478281,,,0,BSOL,2
BSTI1,"Bastière",,47.14834812,-1.45935784,,,0,BSTI,2
BSTI2,"Bastière",,47.14915680,-1.45941515,,,0,BSTI,2
BSYS1,"Bois St-Lys",,47.30043659,-1.48194835,,,0,BSYS,1
BSYS2,"Bois St-Lys",,47.30043222,-1.48208043,,,0,BSYS,1
BTAI1,"Brétinais",,47.22178591,-1.66591546,,,0,BTAI,1
BTAI2,"Brétinais",,47.22170065,-1.66577687,,,0,BTAI,1
BTCY1,"Lycée Bois Tillac",,47.20343111,-1.77027988,,,0,BTCY,1
BTEC1,"Bretéché",,47.22592749,-1.54749386,,,0,BTEC,1
BTEC2,"Bretéché",,47.22525856,-1.54863519,,,0,BTEC,1
BTIE1,"Bottière",,47.24023431,-1.51838071,,,0,BTIE,1
BTIE2,"Bottière",,47.24024313,-1.51811685,,,0,BTIE,1
BTLE1,"Bouteillerie",,47.22146970,-1.54346856,,,0,BTLE,1
BTLE2,"Bouteillerie",,47.22167159,-1.54282219,,,0,BTLE,1
BTRA1,"Bertrand",,47.25712789,-1.57568980,,,0,BTRA,1
BTRA2,"Bertrand",,47.25703804,-1.57568323,,,0,BTRA,1
BUGA1,"Bugallière",,47.25996214,-1.63768218,,,0,BUGA,1
BUGA2,"Bugallière",,47.25995304,-1.63794611,,,0,BUGA,1
BULA1,"Butte des Landes",,47.16034071,-1.49427547,,,0,BULA,1
BULA2,"Butte des Landes",,47.16080750,-1.49378067,,,0,BULA,1
BUON1,"Bougon",,47.17424115,-1.61071290,,,0,BUON,1
BUON3,"Bougon",,47.17441632,-1.61085790,,,0,BUON,1
BUSS1,"Buisson",,47.26062797,-1.48743916,,,0,BUSS,2
BUSS2,"Buisson",,47.25990043,-1.48765170,,,0,BUSS,2
BVDI1,"Bouvardière",,47.23852184,-1.59839758,,,0,BVDI,2
BVDI2,"Bouvardière",,47.23843200,-1.59839097,,,0,BVDI,2
BVER1,"Bouvernière",,47.23761711,-1.61168790,,,0,BVER,1
BVER2,"Bouvernière",,47.23807988,-1.61132532,,,0,BVER,1
BVOI1,"Beauvoir",,47.17848969,-1.63123773,,,0,BVOI,2
BVOI2,"Beauvoir",,47.17851239,-1.63057890,,,0,BVOI,2
BVOI3,"Beauvoir",,47.17902148,-1.62625720,,,0,BVOI,1
BVOI4,"Beauvoir",,47.17892710,-1.62638231,,,0,BVOI,1
BYCE1,"Centre de Bouaye",,47.14396012,-1.69178590,,,0,BYCE,1
BYCE2,"Centre de Bouaye",,47.14396012,-1.69178590,,,0,BYCE,1
BYGA1,"Gare de Bouaye",,47.13840350,-1.68067539,,,0,BYGA,2
BYGA2,"Gare de Bouaye",,47.13839890,-1.68080706,,,0,BYGA,2
BYTO1,"Bouaye Coteaux",,47.16439245,-1.67932324,,,0,BYTO,1
BYTO2,"Bouaye Coteaux",,47.16477019,-1.67882328,,,0,BYTO,2
BZAR1,"Buzardières",,47.20732049,-1.65967851,,,0,BZAR,1
BZAR2,"Buzardières",,47.20677231,-1.65990192,,,0,BZAR,1
CABR1,"Cabrol",,47.20328093,-1.58853732,,,0,CABR,2
CABR2,"Cabrol",,47.20409851,-1.58833297,,,0,CABR,2
CACE1,"Centre de Carquefou",,47.29710622,-1.49005046,,,0,CACE,1
CACE2,"Centre de Carquefou",,47.29715228,-1.49137760,,,0,CACE,1
CACE3,"Centre de Carquefou",,47.29662633,-1.49094276,,,0,CACE,1
CADO1,"Cadoire",,47.25673385,-1.48808660,,,0,CADO,1
CADO2,"Cadoire",,47.25673385,-1.48808660,,,0,CADO,1
CAGE1,"Chalonges",,47.27613635,-1.42939758,,,0,CAGE,2
CAHL1,"Charlière",,47.32102226,-1.55057037,,,0,CAHL,2
CAHL2,"Charlière",,47.32085147,-1.55029304,,,0,CAHL,2
CAIO1,"Caillou Blanc",,47.29867619,-1.58548503,,,0,CAIO,1
CAIO2,"Caillou Blanc",,47.29895021,-1.58537276,,,0,CAIO,1
CALI1,"Californie",,47.19180767,-1.58426052,,,0,CALI,2
CALI2,"Californie",,47.19126412,-1.58435283,,,0,CALI,1
CALI3,"Californie",,47.19087333,-1.58524911,,,0,CALI,1
CANC1,"Canclaux",,47.21387129,-1.57481349,,,0,CANC,1
CANC2,"Canclaux",,47.21382637,-1.57481021,,,0,CANC,1
CANC3,"Canclaux",,47.21491931,-1.57471827,,,0,CANC,1
CANC4,"Canclaux",,47.21527869,-1.57474454,,,0,CANC,1
CAPE1,"Capellia",,47.27980432,-1.55498334,,,0,CAPE,1
CAPE2,"Capellia",,47.27971448,-1.55497680,,,0,CAPE,1
CARQ1,"Carquefou",,47.30365167,-1.48548819,,,0,CARQ,2
CARQ2,"Carquefou",,47.30364730,-1.48562028,,,0,CARQ,1
CAST1,"Castorama",,47.25889176,-1.50715847,,,0,CAST,2
CAST2,"Castorama",,47.25899041,-1.50690098,,,0,CAST,2
CATI1,"Cartier",,47.26816466,-1.45556222,,,0,CATI,1
CATI2,"Cartier",,47.26753137,-1.45564960,,,0,CATI,2
CATV1,"CAT Vertonne",,47.18425133,-1.48211548,,,0,CATV,1
CATV2,"CAT Vertonne",,47.18416147,-1.48210907,,,0,CATV,1
CAUX1,"Château d'Aux",,47.18529904,-1.67388918,,,0,CAUX,1
CAUX2,"Château d'Aux",,47.18510559,-1.67427105,,,0,CAUX,1
CAUX3,"Château d'Aux",,47.18536593,-1.67455481,,,0,CAUX,1
CAUX4,"Château d'Aux",,47.18492132,-1.67438937,,,0,CAUX,2
CBAC1,"Bac de Couëron",,47.20598337,-1.75170597,,,0,CBAC,2
CBEA1,"Charbonneau",,47.30066718,-1.48858445,,,0,CBEA,1
CBEA2,"Charbonneau",,47.30068698,-1.49070416,,,0,CBEA,1
CBEA3,"Charbonneau",,47.30085125,-1.48846524,,,0,CBEA,2
CBGE1,"Chapeau Berger",,47.17100393,-1.46875604,,,0,CBGE,1
CBGE2,"Chapeau Berger",,47.17163289,-1.46880074,,,0,CBGE,1
CBGE3,"Chapeau Berger",,47.17186919,-1.46710059,,,0,CBGE,1
CBIN1,"Corbinerie",,47.16143945,-1.54215663,,,0,CBIN,1
CBIN2,"Corbinerie",,47.16161915,-1.54216964,,,0,CBIN,1
CBLE1,"Chemin Bleu",,47.17822772,-1.52501183,,,0,CBLE,1
CBLE2,"Chemin Bleu",,47.17831315,-1.52515008,,,0,CBLE,1
CBOU1,"Couëron Bougon",,47.22508102,-1.73386051,,,0,CBOU,1
CBRD1,"Claude Bernard",,47.22302200,-1.61180052,,,0,CBRD,1
CBRD2,"Claude Bernard",,47.22310732,-1.61193903,,,0,CBRD,1
CBSS1,"Cambronne",,47.20658880,-1.50644117,,,0,CBSS,1
CBSS2,"Cambronne",,47.20658880,-1.50644117,,,0,CBSS,1
CBTE1,"Choblèterie",,47.13620786,-1.46153344,,,0,CBTE,1
CBTE2,"Choblèterie",,47.13628902,-1.46180316,,,0,CBTE,2
CCAN1,"Couchant",,47.26838555,-1.59953772,,,0,CCAN,2
CCD99,"Cochardières",,47.22994281,-1.63320361,,,0,CCDI,2
CCDI1,"Cochardières",,47.22994281,-1.63320361,,,0,CCDI,1
CCDI2,"Cochardières",,47.22909336,-1.63433061,,,0,CCDI,1
CCDI3,"Cochardières",,47.22981663,-1.63425208,,,0,CCDI,2
CCHA1,"Couchant",,47.27020292,-1.51366167,,,0,CCHA,1
CCHA2,"Couchant",,47.27010426,-1.51391920,,,0,CCHA,1
CCLA1,"Cimetière de la Classerie",,47.17078005,-1.55894662,,,0,CCLA,1
CCLA2,"Cimetière de la Classerie",,47.17135033,-1.55806356,,,0,CCLA,1
CCOU1,"Champ de Courses",,47.24456069,-1.56114747,,,0,CCOU,1
CCOU2,"Champ de Courses",,47.24498315,-1.56197183,,,0,CCOU,1
CCRE1,"Chêne Creux",,47.17040404,-1.54874939,,,0,CCRE,1
CCRE2,"Chêne Creux",,47.17005354,-1.54845981,,,0,CCRE,1
CDAN1,"Chêne des Anglais",,47.26143557,-1.57349133,,,0,CDAN,1
CDAN2,"Chêne des Anglais",,47.26136362,-1.57295686,,,0,CDAN,1
CDAN3,"Chêne des Anglais",,47.26144899,-1.57309540,,,0,CDAN,1
CDAN4,"Chêne des Anglais",,47.26152094,-1.57362988,,,0,CDAN,1
CDAN5,"Chêne des Anglais",,47.26139977,-1.57454713,,,0,CDAN,1
CDAN6,"Chêne des Anglais",,47.26139529,-1.57467911,,,0,CDAN,1
CDCO1,"Cité des Congrès",,47.21367185,-1.54501797,,,0,CDCO,1
CDCO2,"Cité des Congrès",,47.21349660,-1.54487307,,,0,CDCO,1
CDMA1,"Champ de Manoeuvre",,47.27270482,-1.50074174,,,0,CDMA,1
CDMA2,"Champ de Manoeuvre",,47.27228631,-1.49978542,,,0,CDMA,2
CEDR1,"Cèdre",,47.29944073,-1.56025341,,,0,CEDR,1
CEDR2,"Cèdre",,47.29945410,-1.55985720,,,0,CEDR,1
CEER1,"Chapellerie",,47.28291508,-1.42312581,,,0,CEER,2
CELL1,"Le Cellier",,47.32388492,-1.34786995,,,0,CELL,2
CELL2,"Le Cellier",,47.32361957,-1.34771920,,,0,CELL,2
CFOI1,"Champ de Foire",,47.12415033,-1.61890054,,,0,CFOI,1
CFOI2,"Champ de Foire",,47.12461313,-1.61853879,,,0,CFOI,1
CGAU1,"Cimetière de la Gaudinière",,47.24292433,-1.58285056,,,0,CGAU,1
CGAU2,"Cimetière de la Gaudinière",,47.24319834,-1.58273839,,,0,CGAU,1
CGLA1,"Chêne Gala",,47.18315380,-1.53923829,,,0,CGLA,1
CGLA2,"Chêne Gala",,47.18394469,-1.53982398,,,0,CGLA,1
CHAB1,"Chabossière",,47.21544882,-1.68236264,,,0,CHAB,1
CHAB2,"Chabossière",,47.21536358,-1.68222404,,,0,CHAB,1
CHBE1,"Chambelles",,47.23162967,-1.53058634,,,0,CHBE,1
CHBE2,"Chambelles",,47.23214220,-1.53141676,,,0,CHBE,1
CHER1,"La Cochère",,47.20269502,-1.77828605,,,0,CHER,1
CHER2,"La Cochère",,47.20269502,-1.77828605,,,0,CHER,1
CHER3,"La Cochère",,47.20044448,-1.77824516,,,0,CHER,1
CHFL1,"Champ Fleuri",,47.14383024,-1.52477660,,,0,CHFL,1
CHFL2,"Champ Fleuri",,47.14406886,-1.52571786,,,0,CHFL,1
CHGN1,"Châtaigniers",,47.22155904,-1.60190923,,,0,CHGN,1
CHGN2,"Châtaigniers",,47.22165339,-1.60178397,,,0,CHGN,1
CHGN3,"Châtaigniers",,47.22206655,-1.60287205,,,0,CHGN,1
CHGN4,"Châtaigniers",,47.22215639,-1.60287866,,,0,CHGN,1
CHIN1,"La Chesnaie",,47.28174731,-1.53738987,,,0,CHIN,1
CHIN2,"La Chesnaie",,47.28165303,-1.53751539,,,0,CHIN,1
CHLI1,"Cholière",,47.25093723,-1.60671900,,,0,CHLI,1
CHLI2,"Cholière",,47.25102707,-1.60672562,,,0,CHLI,1
CHME1,"Charmes",,47.19080195,-1.46104727,,,0,CHME,2
CHME2,"Charmes",,47.19107150,-1.46106640,,,0,CHME,2
CHNI1,"Charbonnière",,47.26367965,-1.64219263,,,0,CHNI,1
CHNI2,"Charbonnière",,47.26387299,-1.64181008,,,0,CHNI,1
CHOC1,"Chocolaterie",,47.24288378,-1.52775004,,,0,CHOC,1
CHOC2,"Chocolaterie",,47.24270600,-1.52794880,,,0,CHOC,1
CHPO1,"Champonnière",,47.16400203,-1.50602626,,,0,CHPO,1
CHPO2,"Champonnière",,47.16365142,-1.50573699,,,0,CHPO,1
CHRE1,"Chalâtres",,47.23184385,-1.53788749,,,0,CHRE,1
CHRE2,"Chalâtres",,47.23108993,-1.53861300,,,0,CHRE,1
CHSS1,"Chaussée",,47.17664867,-1.52106736,,,0,CHSS,1
CHSS2,"Chaussée",,47.17724671,-1.52203508,,,0,CHSS,1
CHTE1,"Châtelets",,47.19688716,-1.54062925,,,0,CHTE,1
CHTE2,"Châtelets",,47.19725099,-1.54052347,,,0,CHTE,1
CHVE1,"Chauvais",,47.33733351,-1.57163166,,,0,CHVE,2
CHVE2,"Chauvais",,47.33672737,-1.57357462,,,0,CHVE,2
CHZY1,"Chanzy",,47.22409418,-1.54496778,,,0,CHZY,1
CHZY2,"Chanzy",,47.22353823,-1.54542983,,,0,CHZY,1
CIFA2,"CIFAM",,47.26523211,-1.48710703,,,0,CIFA,2
CIFA3,"CIFAM",,47.26375953,-1.48806010,,,0,CIFA,2
CIFA4,"CIFAM",,47.26672891,-1.48814027,,,0,CIFA,2
CIFA5,"CIFAM",,47.26680328,-1.48589634,,,0,CIFA,1
CIGL1,"Chai Gallais",,47.13687684,-1.72161486,,,0,CIGL,1
CIGL2,"Chai Gallais",,47.13687684,-1.72161486,,,0,CIGL,1
CIVL1,"Circuit du Vallon",,47.27365771,-1.44735100,,,0,CIVL,2
CJOS1,"Cimetière de St-Joseph-de-Porterie",,47.26852726,-1.52068599,,,0,CJOS,1
CJOS2,"Cimetière de St-Joseph-de-Porterie",,47.26813697,-1.52158403,,,0,CJOS,1
CLAM1,"Clos Ami",,47.21214757,-1.65554467,,,0,CLAM,1
CLAM2,"Clos Ami",,47.21227700,-1.65700840,,,0,CLAM,1
CLAM3,"Clos Ami",,47.21176994,-1.65604524,,,0,CLAM,2
CLBO1,"Clos Bonnet",,47.18917694,-1.56358856,,,0,CLBO,2
CLBO2,"Clos Bonnet",,47.19038568,-1.56513003,,,0,CLBO,2
CLET1,"Clétras",,47.25552965,-1.51075294,,,0,CLET,1
CLET2,"Clétras",,47.25595247,-1.51157707,,,0,CLET,1
CLGE1,"Chalonges",,47.18964952,-1.47140272,,,0,CLGE,1
CLGE2,"Chalonges",,47.18916104,-1.47255701,,,0,CLGE,1
CLGE3,"Chalonges",,47.18925961,-1.47229979,,,0,CLGE,1
CLGE4,"Chalonges",,47.18979872,-1.47233816,,,0,CLGE,1
CLGE5,"Chalonges",,47.18996534,-1.47274637,,,0,CLGE,1
CLMO1,"Cimetière de La Montagne",,47.18746776,-1.68660393,,,0,CLMO,1
CLMO2,"Cimetière de La Montagne",,47.18729268,-1.68645864,,,0,CLMO,1
CLNA1,"Colonac",,47.22513023,-1.60283325,,,0,CLNA,1
CLNA2,"Colonac",,47.22412843,-1.60315611,,,0,CLNA,1
CLOT1,"Clotais",,47.19311033,-1.71834643,,,0,CLOT,1
CLOT2,"Clotais",,47.19302513,-1.71820783,,,0,CLOT,1
CLPT1,"Clépettre",,47.29697973,-1.54776171,,,0,CLPT,1
CLPT2,"Clépettre",,47.29664257,-1.54707526,,,0,CLPT,1
CLRO1,"Clos Roux",,47.19871610,-1.75088644,,,0,CLRO,1
CLRO2,"Clos Roux",,47.19812466,-1.74978398,,,0,CLRO,1
CLSE1,"Closeaux",,47.23913119,-1.62793436,,,0,CLSE,2
CLSE2,"Closeaux",,47.23995337,-1.62759856,,,0,CLSE,2
CLTT1,"Châlet",,47.23000511,-1.54408774,,,0,CLTT,1
CLTT2,"Châlet",,47.22936286,-1.54443781,,,0,CLTT,1
CLUE1,"Clouet",,47.16753189,-1.51090184,,,0,CLUE,2
CLUE2,"Clouet",,47.16701040,-1.51033612,,,0,CLUE,2
CLZE1,"Clouzeaux",,47.17930576,-1.49272643,,,0,CLZE,1
CLZE2,"Clouzeaux",,47.17939999,-1.49260107,,,0,CLZE,1
CMAR1,"Cirque - Marais",,47.21805985,-1.55724699,,,0,CMAR,1
CMAR2,"Cirque - Marais",,47.21816269,-1.55713550,,,0,CMAR,1
CMCI1,"Clémencière",,47.26954128,-1.43554844,,,0,CMCI,1
CMCI2,"Clémencière",,47.26944711,-1.43567411,,,0,CMCI,1
CMLL1,"Charmille",,47.25717693,-1.60598862,,,0,CMLL,1
CMLL2,"Charmille",,47.25708257,-1.60611395,,,0,CMLL,1
CMNE1,"Commune 1871",,47.19923040,-1.50023062,,,0,CMNE,1
CMNE2,"Commune 1871",,47.19933781,-1.49970975,,,0,CMNE,1
CMOU1,"Clos du Moulin",,47.14512195,-1.52117338,,,0,CMOU,1
CMOU2,"Clos du Moulin",,47.14511753,-1.52130508,,,0,CMOU,1
CMRA1,"Cormerais",,47.19475301,-1.62715773,,,0,CMRA,2
CMRA2,"Cormerais",,47.19466770,-1.62701927,,,0,CMRA,2
CMSY1,"Carrière Misery",,47.19978561,-1.58008758,,,0,CMSY,2
CMSY2,"Carrière Misery",,47.19999218,-1.57930979,,,0,CMSY,2
CMUS1,"Camus",,47.21913271,-1.57264675,,,0,CMUS,1
CMUS2,"Camus",,47.21921361,-1.57291706,,,0,CMUS,1
CNAV1,"Chantiers Navals",,47.20895696,-1.56727727,,,0,CNAV,1
CNAV2,"Chantiers Navals",,47.20884925,-1.56779810,,,0,CNAV,1
CNAV3,"Chantiers Navals",,47.20904681,-1.56728382,,,0,CNAV,1
CNAV4,"Chantiers Navals",,47.20893910,-1.56780465,,,0,CNAV,1
CNCE1,"Chenonceau",,47.27263937,-1.43444392,,,0,CNCE,2
CNGO1,"Congo",,47.24067675,-1.60913647,,,0,CNGO,1
CNGO2,"Congo",,47.23965236,-1.61011890,,,0,CNGO,1
CNLA1,"Canal",,47.21601944,-1.47195777,,,0,CNLA,1
CNLA2,"Canal",,47.21611800,-1.47170042,,,0,CNLA,1
CNNT1,"Chemin Nantais",,47.28869323,-1.43372399,,,0,CNNT,2
CNON1,"Chinon",,47.27416824,-1.42899425,,,0,CNON,2
CNON2,"Chinon",,47.27416393,-1.42912627,,,0,CNON,2
CNTR1,"Centaure",,47.16998730,-1.62704148,,,0,CNTR,1
CNTR2,"Centaure",,47.17007260,-1.62717988,,,0,CNTR,1
CNVR1,"Chêne Vert",,47.28625269,-1.43950764,,,0,CNVR,2
COAY1,"Corlay",,47.20794884,-1.64412854,,,0,COAY,1
COAY2,"Corlay",,47.20803413,-1.64426706,,,0,COAY,1
COCH1,"Cochard",,47.22459407,-1.54964461,,,0,COCH,1
COCH2,"Cochard",,47.22402387,-1.55052864,,,0,COCH,1
COET1,"Les Couëts",,47.18075234,-1.58622504,,,0,COET,1
COET2,"Les Couëts",,47.18064454,-1.58674555,,,0,COET,1
COHO1,"Chohonnière",,47.26319622,-1.48603530,,,0,COHO,1
COHO2,"Chohonnière",,47.26337592,-1.48604815,,,0,COHO,1
COLI1,"Colinière",,47.23588381,-1.50841400,,,0,COLI,1
COLI2,"Colinière",,47.23560107,-1.50879037,,,0,COLI,1
COLI3,"Colinière",,47.23662019,-1.50793800,,,0,COLI,1
COMB2,"Commerce",,47.21337472,-1.55649624,,,0,COMM,1
COMC1,"Commerce",,47.21357223,-1.55598188,,,0,COMM,1
COME1,"Commerce",,47.21474023,-1.55606686,,,0,COMM,1
COME2,"Commerce",,47.21429991,-1.55577046,,,0,COMM,1
COME3,"Commerce",,47.21448405,-1.55565167,,,0,COMM,1
COMF1,"Commerce",,47.21483898,-1.55580968,,,0,COMM,1
CONI1,"Corniche",,47.25261848,-1.59440839,,,0,CONI,1
CONI2,"Corniche",,47.25287901,-1.59469212,,,0,CONI,2
COQU1,"Coquelicots",,47.22246368,-1.72890142,,,0,COQU,2
COQU2,"Coquelicots",,47.22253956,-1.72930385,,,0,COQU,2
CORA1,"Conraie",,47.26084370,-1.58826584,,,0,CORA,1
CORA2,"Conraie",,47.26092905,-1.58840441,,,0,CORA,1
COST1,"Cousteau",,47.23987594,-1.51293285,,,0,COST,1
COST2,"Cousteau",,47.23978169,-1.51305831,,,0,COST,1
COTA1,"Coutancière",,47.30620126,-1.56008462,,,0,COTA,1
COUD1,"Coudray",,47.23249311,-1.54241706,,,0,COUD,1
COUD2,"Coudray",,47.23213372,-1.54239100,,,0,COUD,1
CP3R1,"Chapelles",,47.16354476,-1.53847942,,,0,CP3R,2
CP3R2,"Chapelles",,47.16521640,-1.53965688,,,0,CP3R,1
CP4L1,"Chapelle Laënnec",,47.23536751,-1.63783808,,,0,CP4L,1
CPE79,"Copernic",,47.21490855,-1.56440687,,,0,CPER,1
CPER1,"Copernic",,47.21487847,-1.56449720,,,0,CPER,1
CPER2,"Copernic",,47.21486324,-1.56468115,,,0,CPER,1
CPGT1,"Capitaine Grant",,47.26146439,-1.66716656,,,0,CPGT,1
CPGT2,"Capitaine Grant",,47.26183568,-1.66944367,,,0,CPGT,1
CPRE1,"Chaupières",,47.24317344,-1.49505175,,,0,CPRE,2
CPTE1,"Chapelet",,47.13210719,-1.64152997,,,0,CPTE,1
CPTE2,"Chapelet",,47.13244380,-1.64221491,,,0,CPTE,1
CQGU1,"Chat-qui-Guette",,47.19195490,-1.69738037,,,0,CQGU,1
CQGU2,"Chat-qui-Guette",,47.19196413,-1.69711679,,,0,CQGU,1
CQLU1,"Coqueluchon",,47.18383096,-1.47032832,,,0,CQLU,2
CQLU2,"Coqueluchon",,47.18410051,-1.47034749,,,0,CQLU,2
CRA99,"Clairais",,47.27548789,-1.43821772,,,0,CRAI,1
CRAI1,"Clairais",,47.27556478,-1.43862013,,,0,CRAI,1
CRBE1,"Corberie",,47.15205072,-1.52404890,,,0,CRBE,1
CRBE2,"Corberie",,47.15241896,-1.52381138,,,0,CRBE,1
CRCE1,"Courocerie",,47.25176590,-1.49937116,,,0,CRCE,1
CRCE2,"Courocerie",,47.25150513,-1.49908791,,,0,CRCE,1
CREZ1,"Château de Rezé",,47.18472858,-1.55930110,,,0,CREZ,1
CREZ2,"Château de Rezé",,47.18480505,-1.55970300,,,0,CREZ,1
CRME1,"Crémetterie",,47.21824482,-1.60769349,,,0,CRME,1
CRME2,"Crémetterie",,47.21827616,-1.60835679,,,0,CRME,1
CRNO1,"Corbon",,47.21240979,-1.46125919,,,0,CRNO,1
CRNO2,"Corbon",,47.21332134,-1.46092737,,,0,CRNO,1
CROU1,"Chemin Rouge",,47.25169783,-1.51761998,,,0,CROU,1
CROU2,"Chemin Rouge",,47.25188193,-1.51750097,,,0,CROU,1
CRPO1,"Criport",,47.15786830,-1.50360558,,,0,CRPO,2
CRPO2,"Criport",,47.15831755,-1.50363779,,,0,CRPO,2
CRQU1,"Place du Cirque",,47.21713489,-1.55716644,,,0,CRQU,1
CRQU2,"Place du Cirque",,47.21677996,-1.55700842,,,0,CRQU,1
CRQU3,"Place du Cirque",,47.21665996,-1.55682784,,,0,CRQU,1
CRQU4,"Place du Cirque",,47.21697621,-1.55679798,,,0,CRQU,1
CRRO1,"Claire Roman",,47.15472868,-1.59131723,,,0,CRRO,1
CRRO2,"Claire Roman",,47.15472419,-1.59144894,,,0,CRRO,1
CRSA1,"Croissant",,47.24042129,-1.53054765,,,0,CRSA,1
CRSA2,"Croissant",,47.24101799,-1.52994279,,,0,CRSA,1
CRTI1,"Crétinières",,47.27715351,-1.55346690,,,0,CRTI,1
CRTI2,"Crétinières",,47.27653350,-1.55315709,,,0,CRTI,1
CRVA1,"Cravate",,47.24336474,-1.58843772,,,0,CRVA,1
CRVA2,"Cravate",,47.24327939,-1.58829920,,,0,CRVA,1
CSAY1,"Chassay",,47.24568008,-1.48465082,,,0,CSAY,2
CSAY2,"Chassay",,47.24585103,-1.48492755,,,0,CSAY,1
CSCL1,"Cimetière St-Clair",,47.21658816,-1.59238225,,,0,CSCL,1
CSCL2,"Cimetière St-Clair",,47.21667619,-1.59297036,,,0,CSCL,1
CSER1,"La Chapelle-sur-Erdre",,47.29942423,-1.55005779,,,0,CSER,1
CSER2,"La Chapelle-sur-Erdre",,47.29942423,-1.55005779,,,0,CSER,1
CSGR1,"Cassegrain",,47.18767920,-1.48738031,,,0,CSGR,2
CSGR2,"Cassegrain",,47.18778887,-1.48950197,,,0,CSGR,1
CSHB1,"Carrières",,47.20824349,-1.63820250,,,0,CSHB,1
CSHB2,"Carrières",,47.20824804,-1.63807066,,,0,CSHB,1
CSIB1,"Clos Siban",,47.21023004,-1.64588445,,,0,CSIB,1
CSIB2,"Clos Siban",,47.21021181,-1.64641182,,,0,CSIB,1
CSMP1,"Casimir Périer",,47.23150809,-1.56892329,,,0,CSMP,2
CSMP2,"Casimir Périer",,47.23124749,-1.56863981,,,0,CSMP,2
CSMP3,"Casimir Périer",,47.23198412,-1.56816468,,,0,CSMP,2
CSRI1,"Classerie",,47.16808464,-1.55875054,,,0,CSRI,1
CSRI2,"Classerie",,47.16817448,-1.55875707,,,0,CSRI,1
CSTA1,"Collège Ste-Anne",,47.29495652,-1.49241167,,,0,CSTA,2
CSTE1,"Casterneau",,47.22714308,-1.53277404,,,0,CSTE,1
CSTE2,"Casterneau",,47.22714308,-1.53277404,,,0,CSTE,1
CSVA2,"Conservatoire",,47.20705845,-1.53277550,,,0,CSVA,1
CSVA3,"Conservatoire",,47.20704960,-1.53303919,,,0,CSVA,1
CTAR1,"Cotalard",,47.28632497,-1.53785414,,,0,CTAR,1
CTAR2,"Cotalard",,47.28614972,-1.53770908,,,0,CTAR,1
CTBO1,"Coteaux",,47.18461890,-1.67013882,,,0,CTBO,1
CTBO2,"Coteaux",,47.18437689,-1.66932799,,,0,CTBO,1
CTEU1,"Caboteurs",,47.18639013,-1.58729878,,,0,CTEU,1
CTEU2,"Caboteurs",,47.18638564,-1.58743057,,,0,CTEU,1
CTIE1,"Châtelier",,47.18466058,-1.59311716,,,0,CTIE,2
CTIE2,"Châtelier",,47.18484027,-1.59313035,,,0,CTIE,1
CTLI1,"Courteline",,47.23647823,-1.58700659,,,0,CTLI,1
CTLI2,"Courteline",,47.23657256,-1.58688127,,,0,CTLI,1
CTNS1,"Carterons",,47.21821882,-1.73942001,,,0,CTNS,1
CTNS2,"Carterons",,47.21822349,-1.73928815,,,0,CTNS,1
CTOR1,"Clos Toreau",,47.19439301,-1.52908506,,,0,CTOR,1
CTOR2,"Clos Toreau",,47.19412346,-1.52906560,,,0,CTOR,1
CTOR3,"Clos Toreau",,47.19411462,-1.52932922,,,0,CTOR,2
CTRE1,"Chantrerie - Grandes Ecoles",,47.28179922,-1.51701187,,,0,CTRE,1
CTRE2,"Chantrerie - Grandes Ecoles",,47.28171379,-1.51687336,,,0,CTRE,1
CTRE3,"Chantrerie - Grandes Ecoles",,47.28239287,-1.51811348,,,0,CTRE,1
CTRE4,"Chantrerie - Grandes Ecoles",,47.28221317,-1.51810051,,,0,CTRE,1
CTYY1,"Coty",,47.24907920,-1.48806811,,,0,CTYY,1
CTYY2,"Coty",,47.24898498,-1.48819363,,,0,CTYY,1
CUGA1,"Gare de Couëron",,47.22181322,-1.72435658,,,0,CUGA,1
CUGA2,"Gare de Couëron",,47.22173732,-1.72395416,,,0,CUGA,1
CUIE1,"Chausserie",,47.14946482,-1.70434728,,,0,CUIE,1
CUIE2,"Chausserie",,47.14911471,-1.70405679,,,0,CUIE,1
CUPI1,"Coupries",,47.19177867,-1.46692992,,,0,CUPI,1
CUPI2,"Coupries",,47.19158591,-1.46731259,,,0,CUPI,1
CURI1,"Curie",,47.19048206,-1.48705207,,,0,CURI,1
CURI2,"Curie",,47.19046894,-1.48744749,,,0,CURI,1
CUVI1,"Cuvier",,47.21071002,-1.57401403,,,0,CUVI,2
CUVI2,"Cuvier",,47.21046286,-1.57333508,,,0,CUVI,2
CVBL1,"Cheveux Blancs",,47.26546164,-1.63491548,,,0,CVBL,2
CVBL2,"Cheveux Blancs",,47.26545709,-1.63504746,,,0,CVBL,2
CVDO1,"Cimetière de Vieux Doulon",,47.23849235,-1.50040266,,,0,CVDO,1
CVER1,"Chapeau Verni",,47.18930187,-1.51167390,,,0,CVER,1
CVER2,"Chapeau Verni",,47.18925604,-1.51034941,,,0,CVER,1
CVER3,"Chapeau Verni",,47.18911155,-1.50928208,,,0,CVER,2
CVER4,"Chapeau Verni",,47.18903931,-1.50874841,,,0,CVER,1
CVLE1,"Chevalerie",,47.25221480,-1.54517072,,,0,CVLE,1
CVLE2,"Chevalerie",,47.25230020,-1.54530920,,,0,CVLE,2
CVNI1,"Chauvinière",,47.25148527,-1.57210222,,,0,CVNI,1
CVNI2,"Chauvinière",,47.25157511,-1.57210879,,,0,CVNI,1
CVRN1,"Cheverny",,47.24595568,-1.60489667,,,0,CVRN,1
CVRN2,"Cheverny",,47.24548843,-1.60539129,,,0,CVRN,1
CVTI1,"Convention",,47.21145223,-1.58662535,,,0,CVTI,1
CVTI2,"Convention",,47.21163641,-1.58650668,,,0,CVTI,1
CXFS1,"Croix des Fosses",,47.21322855,-1.46647211,,,0,CXFS,1
CXFS2,"Croix des Fosses",,47.21251409,-1.46628916,,,0,CXFS,1
CZIN1,"Chézine",,47.23372865,-1.59897057,,,0,CZIN,2
CZIN2,"Chézine",,47.23380498,-1.59937290,,,0,CZIN,2
DAKK1,"Danemark",,47.26097867,-1.49857702,,,0,DAKK,1
DAKK2,"Danemark",,47.26186188,-1.49639133,,,0,DAKK,1
DAKK3,"Danemark",,47.26182679,-1.49744719,,,0,DAKK,2
DALB1,"Dalby",,47.22516954,-1.52985488,,,0,DALB,1
DALB2,"Dalby",,47.22564089,-1.52922790,,,0,DALB,1
DANU1,"Danube",,47.30455016,-1.50183802,,,0,DANU,1
DANU2,"Danube",,47.30430697,-1.50102613,,,0,DANU,1
DAVU1,"Davum",,47.26502410,-1.49608887,,,0,DAVU,2
DAVU2,"Davum",,47.26475017,-1.49620153,,,0,DAVU,2
DAYA1,"Dayat",,47.20086884,-1.67426307,,,0,DAYA,1
DAYA2,"Dayat",,47.20202559,-1.67725739,,,0,DAYA,1
DAYA3,"Dayat",,47.20139411,-1.67469892,,,0,DAYA,2
DCAN1,"Duchesse Anne-Chateau",,47.21630505,-1.54705966,,,0,DCAN,1
DCAN2,"Duchesse Anne-Chateau",,47.21620187,-1.54744873,,,0,DCAN,1
DCAN3,"Duchesse Anne-Chateau",,47.21630950,-1.54692779,,,0,DCAN,1
DCAN4,"Duchesse Anne-Chateau",,47.21603996,-1.54690823,,,0,DCAN,1
DCFF1,"Du Chaffault",,47.20748089,-1.58157605,,,0,DCFF,1
DCFF2,"Du Chaffault",,47.20764712,-1.58198473,,,0,DCFF,1
DEMO1,"Desmoulins",,47.23226754,-1.52230218,,,0,DEMO,1
DEMO2,"Desmoulins",,47.23347087,-1.52133117,,,0,DEMO,1
DERV1,"Dervallières",,47.22889513,-1.59808602,,,0,DERV,1
DERV2,"Dervallières",,47.22879628,-1.59834319,,,0,DERV,1
DIAN1,"Diane",,47.23966265,-1.57811502,,,0,DIAN,1
DIAN2,"Diane",,47.23975697,-1.57798967,,,0,DIAN,1
DIDE1,"Espace Diderot",,47.18444632,-1.56231912,,,0,DIDE,1
DIDE2,"Espace Diderot",,47.18442847,-1.56284627,,,0,DIDE,1
DIDE3,"Espace Diderot",,47.18451832,-1.56285281,,,0,DIDE,2
DIDE4,"Espace Diderot",,47.18379509,-1.56293224,,,0,DIDE,1
DIDE5,"Espace Diderot",,47.18449601,-1.56351175,,,0,DIDE,1
DLCR1,"Delacroix",,47.22370249,-1.58924255,,,0,DLCR,1
DLCR2,"Delacroix",,47.22360815,-1.58936784,,,0,DLCR,1
DLLE1,"Drillet",,47.23483550,-1.66623091,,,0,DLLE,1
DLLE2,"Drillet",,47.23476398,-1.66569657,,,0,DLLE,1
DLME3,"Delorme",,47.21571270,-1.56459769,,,0,DLME,1
DLME4,"Delorme",,47.21537117,-1.56404403,,,0,DLME,1
DMAI1,"Domaine",,47.17836307,-1.46954327,,,0,DMAI,1
DMAI2,"Domaine",,47.17844857,-1.46968144,,,0,DMAI,1
DMUR1,"Dumont d'Urville",,47.22587166,-1.63633918,,,0,DMUR,1
DMUR2,"Dumont d'Urville",,47.22578182,-1.63633250,,,0,DMUR,1
DNAI1,"Danais",,47.21363862,-1.58960123,,,0,DNAI,1
DNAI2,"Danais",,47.21364221,-1.58976012,,,0,DNAI,1
DOC99,"Doucet",,47.27796857,-1.63266866,,,0,DOCE,1
DOLT1,"Dolto",,47.21650999,-1.63617274,,,0,DOLT,1
DOLT2,"Dolto",,47.21641561,-1.63629793,,,0,DOLT,1
DOME1,"Doumer",,47.22182421,-1.57826385,,,0,DOME,2
DOME2,"Doumer",,47.22164900,-1.57811882,,,0,DOME,1
DOTT1,"Douettée",,47.20775964,-1.49833108,,,0,DOTT,1
DOTT2,"Douettée",,47.20773331,-1.49912218,,,0,DOTT,1
DPTE1,"Déportés",,47.19635756,-1.49183227,,,0,DPTE,1
DPTE2,"Déportés",,47.19715306,-1.49228559,,,0,DPTE,2
DRAD1,"Désirade",,47.27784786,-1.48417198,,,0,DRAD,1
DRAD2,"Désirade",,47.27767254,-1.48402710,,,0,DRAD,1
DRID1,"Druides",,47.23861884,-1.50742048,,,0,DRID,1
DRID2,"Druides",,47.23861884,-1.50742048,,,0,DRID,1
DRLA1,"Drouillard",,47.17977092,-1.67743833,,,0,DRLA,2
